web-scraper-order,address_raw,lat,lon,id,brand,geometry,closest_sup_geom,distance
1662023695-433,"Sunnenbergstrasse 15, 8633 Wolfhausen, ZH",47.25571441650391,8.804975509643555,338156406,Volg,POINT (8.804975509643555 47.25571441650391),POINT (8.8208789 47.2696707),2340.7091051754887
1662023720-634,"Blumenbergstrasse 7, 8633 Wolfhausen, ZH",47.254878997802734,8.793745994567871,623872894,Volg,POINT (8.793745994567871 47.254878997802734),POINT (8.767989 47.25162),2886.3519856483135
1662023745-834,"8608 Bubikon, ZH",47.27738571166992,8.80030632019043,338156406,Volg,POINT (8.80030632019043 47.27738571166992),POINT (8.8208789 47.2696707),2439.5975242442487
1662023701-503,"8608 Bubikon, ZH",47.27738571166992,8.80030632019043,338156406,Volg,POINT (8.80030632019043 47.27738571166992),POINT (8.8208789 47.2696707),2439.5975242442487
1662023745-820,"Lavaterstr. 63, 8002 Zürich, ZH",47.36137771606445,8.53333854675293,765567648,ALDI,POINT (8.53333854675293 47.36137771606445),POINT (8.5376871 47.3737558),1444.4714413196843
1662023739-771,"Parkring 59, 8002 Zürich, ZH",47.36689758300781,8.528817176818848,765567648,ALDI,POINT (8.528817176818848 47.36689758300781),POINT (8.5376871 47.3737558),1241.5802409441362
1662023720-640,"Flobotstrasse 2, 8044 Zürich, ZH",47.37957763671875,8.570284843444824,765567648,ALDI,POINT (8.570284843444824 47.37957763671875),POINT (8.5376871 47.3737558),3680.7986326444807
1662023686-384,"Hinterbergstrasse 57, 8044 Zürich, ZH",47.38201522827149,8.556857109069824,765567648,ALDI,POINT (8.556857109069824 47.38201522827149),POINT (8.5376871 47.3737558),2317.021860134149
1662023789-1164,"Nansenstrasse 7, 8050 Zürich, ZH",47.410762786865234,8.545214653015137,482763774,ALDI,POINT (8.545214653015137 47.410762786865234),POINT (8.5390336 47.4137334),760.9768586276037
1662023764-980,"Wehntalerstrasse 223, 8057 Zürich, ZH",47.40802001953125,8.529781341552734,482763774,ALDI,POINT (8.529781341552734 47.40802001953125),POINT (8.5390336 47.4137334),1205.468371296077
1662023767-1007,"Baumackerstrasse 47, 8050 Zürich, ZH",47.40944290161133,8.542278289794922,482763774,ALDI,POINT (8.542278289794922 47.40944290161133),POINT (8.5390336 47.4137334),593.9347824128259
1662023704-520,"Zwischenbächen 139, 8048 Zürich, ZH",47.380489349365234,8.4798002243042,4868938542,ALDI,POINT (8.4798002243042 47.380489349365234),POINT (8.4978671 47.3838311),2042.2847150906327
1662023698-468,"Hallwylstrasse 84, 8004 Zürich, ZH",47.369815826416016,8.526166915893555,765567648,ALDI,POINT (8.526166915893555 47.369815826416016),POINT (8.5376871 47.3737558),1352.2708981552482
1662023789-1172,"Pfingstweidstrasse 104 E, 8005 Zürich, ZH",47.39086151123047,8.509053230285645,267344304,ALDI,POINT (8.509053230285645 47.39086151123047),POINT (8.4965956 47.3883215),1413.1084352040768
1662023752-867,"Altwiesenstrasse 346, 8051 Zürich, ZH",47.39995956420898,8.590506553649902,2857736035,ALDI,POINT (8.590506553649902 47.39995956420898),POINT (8.5918795 47.405948),675.8793585576713
1662023761-945,"Badenerstrasse 250, 8004 Zürich, ZH",47.3759880065918,8.516037940979004,4423175779,ALDI,POINT (8.516037940979004 47.3759880065918),POINT (8.5332829 47.3808159),1989.6901900412736
1662023774-1056,"Schöntalstrasse 27, 8004 Zürich, ZH",47.37080764770508,8.526028633117676,765567648,ALDI,POINT (8.526028633117676 47.37080764770508),POINT (8.5376871 47.3737558),1336.2842877576174
1662023761-941,"Am Wasser 161, 8049 Zürich, ZH",47.3994369506836,8.495816230773926,267344304,ALDI,POINT (8.495816230773926 47.3994369506836),POINT (8.4965956 47.3883215),1225.485674413512
1662023786-1149,"Freudenbergstrasse 94, 8044 Zürich, ZH",47.38413238525391,8.55653190612793,765567648,ALDI,POINT (8.55653190612793 47.38413238525391),POINT (8.5376871 47.3737558),2385.9588379044026
1662023755-909,"Lavaterstr. 63, 8002 Zürich, ZH",47.36137771606445,8.53333854675293,765567648,ALDI,POINT (8.53333854675293 47.36137771606445),POINT (8.5376871 47.3737558),1444.4714413196843
1662023714-590,"Meientalstrasse 65, 8048 Zürich, ZH",47.385841369628906,8.478418350219727,267344304,ALDI,POINT (8.478418350219727 47.385841369628906),POINT (8.4965956 47.3883215),2039.5388548950161
1662023801-1270,"Affolternstrasse 154, 8050 Zürich, ZH",47.4113655090332,8.532044410705566,482763774,ALDI,POINT (8.532044410705566 47.4113655090332),POINT (8.5390336 47.4137334),819.621704949125
1662023786-1131,"Seestrasse 361, 8038 Zürich, ZH",47.345306396484375,8.533795356750488,75749133,ALDI,POINT (8.533795356750488 47.345306396484375),POINT (8.5306007 47.3409666),594.9197794169539
1662023730-716,"Hohlstr. 509, 8048 Zürich, ZH",47.388973236083984,8.493876457214355,267344304,ALDI,POINT (8.493876457214355 47.388973236083984),POINT (8.4965956 47.3883215),310.7341725824775
1662023798-1239,"Feldblumenstrasse 10, 8048 Zürich, ZH",47.38809967041016,8.482545852661133,267344304,ALDI,POINT (8.482545852661133 47.38809967041016),POINT (8.4965956 47.3883215),1562.4510958103256
1662023695-453,"Letzigraben 171, 8047 Zürich, ZH",47.37362289428711,8.495223999023438,4868938542,ALDI,POINT (8.495223999023438 47.37362289428711),POINT (8.4978671 47.3838311),1160.4755471876024
1662023695-436,"Fritz Fleiner-Weg 11, 8044 Zürich, ZH",47.38129806518555,8.56221866607666,765567648,ALDI,POINT (8.56221866607666 47.38129806518555),POINT (8.5376871 47.3737558),2851.073777748339
1662023786-1150,"Uhlandstrasse 6, 8037 Zürich, ZH",47.39446640014648,8.5289306640625,4423175779,ALDI,POINT (8.5289306640625 47.39446640014648),POINT (8.5332829 47.3808159),1577.1560062312633
1662023714-581,"Frohburgstrasse 303, 8057 Zürich, ZH",47.40309143066406,8.557792663574219,1052078781,ALDI,POINT (8.557792663574219 47.40309143066406),POINT (8.5568084 47.4193147),1787.2171408547997
1662023807-1317,"Hätzlergasse 28, 8048 Zürich, ZH",47.39047622680664,8.468478202819824,1287601534,ALDI,POINT (8.468478202819824 47.39047622680664),POINT (8.4593802 47.3986111),1350.5317627112843
1662023701-483,"8048 Zürich, ZH",47.38191604614258,8.482671737670898,267344304,ALDI,POINT (8.482671737670898 47.38191604614258),POINT (8.4965956 47.3883215),1700.9899962048044
1662023810-1322,"8001 Zürich, ZH",47.368934631347656,8.54139232635498,765567648,ALDI,POINT (8.54139232635498 47.368934631347656),POINT (8.5376871 47.3737558),671.4171237990355
1662023795-1221,"Carmenstrasse 16, 8032 Zürich, ZH",47.369754791259766,8.561036109924316,765567648,ALDI,POINT (8.561036109924316 47.369754791259766),POINT (8.5376871 47.3737558),2633.302826979705
1662023801-1263,"Forsterstrasse, 8044 Zürich, ZH",47.38007736206055,8.564464569091797,765567648,ALDI,POINT (8.564464569091797 47.38007736206055),POINT (8.5376871 47.3737558),3057.5804071163366
1662023727-676,"Im Trichtisal 7, 8053 Zürich, ZH",47.35511779785156,8.603344917297363,2857736035,ALDI,POINT (8.603344917297363 47.35511779785156),POINT (8.5918795 47.405948),5732.1208030211355
1662023780-1096,"Staffelstrasse 13, 8045 Zürich, ZH",47.36064529418945,8.52066707611084,765567648,ALDI,POINT (8.52066707611084 47.36064529418945),POINT (8.5376871 47.3737558),2379.1184341135995
1662023733-742,"Giessereistrasse 12, 8005 Zürich, ZH",47.39022064208984,8.518072128295898,4423175779,ALDI,POINT (8.518072128295898 47.39022064208984),POINT (8.5332829 47.3808159),1982.4927804757933
1662023707-529,"Rebgasse 8, 8004 Zürich, ZH",47.374168395996094,8.530760765075684,765567648,ALDI,POINT (8.530760765075684 47.374168395996094),POINT (8.5376871 47.3737558),771.5085275068666
1662023733-734,"Fellenbergstrasse 319, 8047 Zürich, ZH",47.3751335144043,8.487833023071289,4868938542,ALDI,POINT (8.487833023071289 47.3751335144043),POINT (8.4978671 47.3838311),1469.6281613158242
1662023723-662,"Bucheggstrasse 157, 8057 Zürich, ZH",47.39902114868164,8.540755271911621,482763774,ALDI,POINT (8.540755271911621 47.39902114868164),POINT (8.5390336 47.4137334),1629.0774135297654
1662023795-1220,"Grimselstrasse 19, 8048 Zürich, ZH",47.385684967041016,8.489228248596191,267344304,ALDI,POINT (8.489228248596191 47.385684967041016),POINT (8.4965956 47.3883215),869.0120385325637
1662023813-1364,"Viktoriastrasse 29, 8057 Zürich, ZH",47.40406799316406,8.55045223236084,482763774,ALDI,POINT (8.55045223236084 47.40406799316406),POINT (8.5390336 47.4137334),1655.8073204422242
1662023736-764,"Gladbachstr. 120, 8044 Zürich, ZH",47.37733840942383,8.558547019958496,765567648,ALDI,POINT (8.558547019958496 47.37733840942383),POINT (8.5376871 47.3737558),2352.732707590839
1662023793-1195,"Schaffhauserstrasse 456, 8052 Zürich, ZH",47.41805267333984,8.546833038330078,482763774,ALDI,POINT (8.546833038330078 47.41805267333984),POINT (8.5390336 47.4137334),988.795352132662
1662023752-879,"Badenerstrasse  250, 8004 Zürich, ZH",47.3759880065918,8.516037940979004,4423175779,ALDI,POINT (8.516037940979004 47.3759880065918),POINT (8.5332829 47.3808159),1989.6901900412736
1662023777-1058,"Hardturmstr. 5, 8005 Zürich, ZH",47.39119338989258,8.519919395446777,4423175779,ALDI,POINT (8.519919395446777 47.39119338989258),POINT (8.5332829 47.3808159),1873.5869627943227
1662023786-1137,"Glatttalstrasse 106, 8052 Zürich, ZH",47.43009185791016,8.54483699798584,1052078781,ALDI,POINT (8.54483699798584 47.43009185791016),POINT (8.5568084 47.4193147),1782.222109166169
1662023739-787,"Langgrütstrasse 104, 8047 Zürich, ZH",47.373294830322266,8.495368003845215,4868938542,ALDI,POINT (8.495368003845215 47.373294830322266),POINT (8.4978671 47.3838311),1191.5770284512762
1662023723-666,"8001 Zürich, ZH",47.368934631347656,8.54139232635498,765567648,ALDI,POINT (8.54139232635498 47.368934631347656),POINT (8.5376871 47.3737558),671.4171237990355
1662023807-1311,"Schaffhauserstrasse 473, 8052 Zürich, ZH",47.420040130615234,8.548195838928223,1052078781,ALDI,POINT (8.548195838928223 47.420040130615234),POINT (8.5568084 47.4193147),960.9893699129597
1662023761-944,"Am Wasser 161, 8049 Zürich, ZH",47.3994369506836,8.495816230773926,267344304,ALDI,POINT (8.495816230773926 47.3994369506836),POINT (8.4965956 47.3883215),1225.485674413512
1662023804-1296,"Nordstrasse 135, 8037 Zürich, ZH",47.39029312133789,8.533413887023926,4423175779,ALDI,POINT (8.533413887023926 47.39029312133789),POINT (8.5332829 47.3808159),1042.2545784442252
1662023692-412,"Im Isengrind 11, 8046 Zürich, ZH",47.42313766479492,8.511916160583496,482763774,ALDI,POINT (8.511916160583496 47.42313766479492),POINT (8.5390336 47.4137334),3187.731831654921
1662023701-494,"Herrligweg 9, 8048 Zürich, ZH",47.389892578125,8.484477996826172,267344304,ALDI,POINT (8.484477996826172 47.389892578125),POINT (8.4965956 47.3883215),1358.4488368323543
1662023749-856,"Flobotstrasse 2, 8044 Zürich, ZH",47.37957763671875,8.570284843444824,765567648,ALDI,POINT (8.570284843444824 47.37957763671875),POINT (8.5376871 47.3737558),3680.7986326444807
1662023795-1219,"Maneggplatz 16, 8041 Zürich, ZH",47.339881896972656,8.520716667175293,75749133,ALDI,POINT (8.520716667175293 47.339881896972656),POINT (8.5306007 47.3409666),1105.5081351342146
1662023736-751,"Hinterbergstrasse 106, 8044 Zürich, ZH",47.3851318359375,8.559892654418945,765567648,ALDI,POINT (8.559892654418945 47.3851318359375),POINT (8.5376871 47.3737558),2767.9299425522913
1662023771-1013,"Mühlebachstr. 28, 8008 Zürich, ZH",47.3648567199707,8.550126075744629,765567648,ALDI,POINT (8.550126075744629 47.3648567199707),POINT (8.5376871 47.3737558),1694.304804668416
1662023786-1152,"Widmerstrasse 19, 8038 Zürich, ZH",47.337650299072266,8.53615665435791,75749133,ALDI,POINT (8.53615665435791 47.337650299072266),POINT (8.5306007 47.3409666),717.3953953673247
1662023789-1174,"Albisstrasse 118, 8038 Zürich, ZH",47.33719253540039,8.52980899810791,75749133,ALDI,POINT (8.52980899810791 47.33719253540039),POINT (8.5306007 47.3409666),424.2486229730844
1662023752-880,"Badenerstrasse 250, 8004 Zürich, ZH",47.3759880065918,8.516037940979004,4423175779,ALDI,POINT (8.516037940979004 47.3759880065918),POINT (8.5332829 47.3808159),1989.6901900412736
1662023789-1165,"Im Altried 1f, 8051 Zürich, ZH",47.40413284301758,8.59100341796875,2857736035,ALDI,POINT (8.59100341796875 47.40413284301758),POINT (8.5918795 47.405948),222.07789255548303
1662023749-847,"Jenatschstrasse 5, 8002 Zürich, ZH",47.364044189453125,8.53388786315918,765567648,ALDI,POINT (8.53388786315918 47.364044189453125),POINT (8.5376871 47.3737558),1148.4436516647645
1662023771-1009,"Dörflistrasse  112, 8050 Zürich, ZH",47.41082382202149,8.547832489013672,482763774,ALDI,POINT (8.547832489013672 47.41082382202149),POINT (8.5390336 47.4137334),1029.3747248362295
1662023755-912,"Austrasse 27, 8045 Zürich, ZH",47.36555099487305,8.519927024841309,765567648,ALDI,POINT (8.519927024841309 47.36555099487305),POINT (8.5376871 47.3737558),2171.1743471599743
1662023742-812,"Pfingstweidstrasse 98, 8005 Zürich, ZH",47.39064025878906,8.51033878326416,267344304,ALDI,POINT (8.51033878326416 47.39064025878906),POINT (8.4965956 47.3883215),1549.3015680817216
1662023761-950,"Albisstrasse 170, 8038 Zürich, ZH",47.3330307006836,8.529637336730957,75749133,ALDI,POINT (8.529637336730957 47.3330307006836),POINT (8.5306007 47.3409666),879.2203335328751
1662023774-1055,"Uhlandstrasse 6, 8037 Zürich, ZH",47.39446640014648,8.5289306640625,4423175779,ALDI,POINT (8.5289306640625 47.39446640014648),POINT (8.5332829 47.3808159),1577.1560062312633
1662023742-799,"8048 Zürich, ZH",47.38191604614258,8.482671737670898,267344304,ALDI,POINT (8.482671737670898 47.38191604614258),POINT (8.4965956 47.3883215),1700.9899962048044
1662023755-890,"Seefeldstr. 168, 8008 Zürich, ZH",47.35554504394531,8.556349754333496,765567648,ALDI,POINT (8.556349754333496 47.35554504394531),POINT (8.5376871 47.3737558),2883.7909682741306
1662023783-1110,"Grosswiesenstrasse 22, 8051 Zürich, ZH",47.403358459472656,8.583616256713867,2857736035,ALDI,POINT (8.583616256713867 47.403358459472656),POINT (8.5918795 47.405948),961.9318031423443
1662023742-801,"Albisriederplatz 1, 8003 Zürich, ZH",47.37791061401367,8.510482788085938,4868938542,ALDI,POINT (8.510482788085938 47.37791061401367),POINT (8.4978671 47.3838311),1546.533909303871
1662023723-654,"8046 Zürich, ZH",47.42034149169922,8.502178192138672,267344304,ALDI,POINT (8.502178192138672 47.42034149169922),POINT (8.4965956 47.3883215),3575.6534735062237
1662023777-1067,"Wehntalerstrasse 286, 8046 Zürich, ZH",47.41147232055664,8.525978088378906,482763774,ALDI,POINT (8.525978088378906 47.41147232055664),POINT (8.5390336 47.4137334),1472.8451969229986
1662023813-1357,"Herrligweg 9, 8048 Zürich, ZH",47.389892578125,8.484477996826172,267344304,ALDI,POINT (8.484477996826172 47.389892578125),POINT (8.4965956 47.3883215),1358.4488368323543
1662023714-584,"8001 Zürich, ZH",47.368934631347656,8.54139232635498,765567648,ALDI,POINT (8.54139232635498 47.368934631347656),POINT (8.5376871 47.3737558),671.4171237990355
1662023771-1030,"Parkring 57, 8002 Zürich, ZH",47.36673355102539,8.528434753417969,765567648,ALDI,POINT (8.528434753417969 47.36673355102539),POINT (8.5376871 47.3737558),1286.3682225351117
1662023755-901,"Seestrasse 412, 8038 Zürich, ZH",47.34281921386719,8.535778999328613,75749133,ALDI,POINT (8.535778999328613 47.34281921386719),POINT (8.5306007 47.3409666),610.7769884193507
1662023767-1008,"Langwiesstrasse, 8050 Zürich, ZH",47.41059875488281,8.53764533996582,482763774,ALDI,POINT (8.53764533996582 47.41059875488281),POINT (8.5390336 47.4137334),377.6809732691295
1662023714-594,"8053 Zürich, ZH",47.35861587524414,8.578998565673828,765567648,ALDI,POINT (8.578998565673828 47.35861587524414),POINT (8.5376871 47.3737558),4885.974143323802
1662023807-1315,"Witikonerstrasse 297, 8053 Zürich, ZH",47.35947799682617,8.585931777954102,2857736035,ALDI,POINT (8.585931777954102 47.35947799682617),POINT (8.5918795 47.405948),5151.905677775407
1662023730-710,"Soodstrasse 88, 8041 Zürich, ZH",47.325828552246094,8.518373489379883,8062028222,ALDI,POINT (8.518373489379883 47.325828552246094),POINT (8.5210608 47.3161717),1103.18394241391
1662023723-658,"Letzigraben 120, 8047 Zürich, ZH",47.37661361694336,8.497147560119629,4868938542,ALDI,POINT (8.497147560119629 47.37661361694336),POINT (8.4978671 47.3838311),797.7596620418752
1662023717-624,"Seestrasse 412, 8038 Zürich, ZH",47.34281921386719,8.535778999328613,75749133,ALDI,POINT (8.535778999328613 47.34281921386719),POINT (8.5306007 47.3409666),610.7769884193507
1662023739-791,"Badenerstrasse  250, 8004 Zürich, ZH",47.3759880065918,8.516037940979004,4423175779,ALDI,POINT (8.516037940979004 47.3759880065918),POINT (8.5332829 47.3808159),1989.6901900412736
1662023795-1216,"Ziegelstrasse 20, 8038 Zürich, ZH",47.340782165527344,8.52829647064209,75749133,ALDI,POINT (8.52829647064209 47.340782165527344),POINT (8.5306007 47.3409666),257.0200607552978
1662023736-747,"8052 Zürich, ZH",47.41648864746094,8.548842430114746,1052078781,ALDI,POINT (8.548842430114746 47.41648864746094),POINT (8.5568084 47.4193147),938.7025534681957
1662023777-1077,"Soodstrasse 90, 8041 Zürich, ZH",47.32560729980469,8.51819896697998,8062028222,ALDI,POINT (8.51819896697998 47.32560729980469),POINT (8.5210608 47.3161717),1085.3137406538165
1662023686-362,"Hofwiesenstrasse 135, 8057 Zürich, ZH",47.39908981323242,8.532793998718262,482763774,ALDI,POINT (8.532793998718262 47.39908981323242),POINT (8.5390336 47.4137334),1753.3680329554797
1662023804-1295,"Wiesliacher 16, 8053 Zürich, ZH",47.354740142822266,8.599199295043945,2857736035,ALDI,POINT (8.599199295043945 47.354740142822266),POINT (8.5918795 47.405948),5688.627297872006
1662023711-558,"Staffelstrasse 13, 8045 Zürich, ZH",47.36064529418945,8.52066707611084,765567648,ALDI,POINT (8.52066707611084 47.36064529418945),POINT (8.5376871 47.3737558),2379.1184341135995
1662023780-1099,"Grosswiesenstrasse 2, 8051 Zürich, ZH",47.4034423828125,8.582525253295898,2857736035,ALDI,POINT (8.582525253295898 47.4034423828125),POINT (8.5918795 47.405948),1076.0088895267022
1662023695-455,"Kasernenstrasse 11, 8004 Zürich, ZH",47.37397003173828,8.531791687011719,765567648,ALDI,POINT (8.531791687011719 47.37397003173828),POINT (8.5376871 47.3737558),655.963166252056
1662023783-1128,"Zwinglistrasse 35, 8004 Zürich, ZH",47.37862396240234,8.527950286865234,4423175779,ALDI,POINT (8.527950286865234 47.37862396240234),POINT (8.5332829 47.3808159),640.0775643956763
1662023707-546,"Rigistr. 52, 8006 Zürich, ZH",47.384803771972656,8.550923347473145,765567648,ALDI,POINT (8.550923347473145 47.384803771972656),POINT (8.5376871 47.3737558),1908.4159383542092
1662023755-889,"Schwandenholzstrasse 232, 8046 Zürich, ZH",47.42425537109375,8.521562576293945,482763774,ALDI,POINT (8.521562576293945 47.42425537109375),POINT (8.5390336 47.4137334),2261.149876461218
1662023758-915,"Walchestr. 25, 8006 Zürich, ZH",47.381141662597656,8.541439056396484,4423175779,ALDI,POINT (8.541439056396484 47.381141662597656),POINT (8.5332829 47.3808159),907.6303829161182
1662023745-832,"Calandastrasse 3, 8048 Zürich, ZH",47.38764953613281,8.489997863769531,267344304,ALDI,POINT (8.489997863769531 47.38764953613281),POINT (8.4965956 47.3883215),737.347378320925
1662023701-488,"8006 Zürich, ZH",47.39287567138672,8.551520347595215,4423175779,ALDI,POINT (8.551520347595215 47.39287567138672),POINT (8.5332829 47.3808159),2423.012614416563
1662023689-395,"Billeterstrasse 15, 8044 Zürich, ZH",47.37915802001953,8.566191673278809,765567648,ALDI,POINT (8.566191673278809 47.37915802001953),POINT (8.5376871 47.3737558),3224.747425163619
1662023801-1262,"Giacomettistrasse 17, 8049 Zürich, ZH",47.40287399291992,8.505340576171875,267344304,ALDI,POINT (8.505340576171875 47.40287399291992),POINT (8.4965956 47.3883215),1872.6421763075327
1662023752-871,"Kreuzstrasse 64, 8008 Zürich, ZH",47.36457824707031,8.552704811096191,765567648,ALDI,POINT (8.552704811096191 47.36457824707031),POINT (8.5376871 47.3737558),1951.1445683969637
1662023758-933,"Eggbühlstrasse 1, 8050 Zürich, ZH",47.41617584228516,8.544777870178223,482763774,ALDI,POINT (8.544777870178223 47.41617584228516),POINT (8.5390336 47.4137334),692.9019127774799
1662023695-445,"Eibenstrasse 6, 8045 Zürich, ZH",47.36368560791016,8.521366119384766,765567648,ALDI,POINT (8.521366119384766 47.36368560791016),POINT (8.5376871 47.3737558),2125.9828232937825
1662023755-905,"Butzenstrasse 2, 8038 Zürich, ZH",47.34154510498047,8.530033111572266,75749133,ALDI,POINT (8.530033111572266 47.34154510498047),POINT (8.5306007 47.3409666),89.61104361231186
1662023795-1223,"Eggbühlstrasse 24, 8050 Zürich, ZH",47.41639709472656,8.543224334716797,482763774,ALDI,POINT (8.543224334716797 47.41639709472656),POINT (8.5390336 47.4137334),550.3982599247157
1662023701-482,"Limmatquai 70, 8001 Zürich, ZH",47.37271881103516,8.542970657348633,765567648,ALDI,POINT (8.542970657348633 47.37271881103516),POINT (8.5376871 47.3737558),598.4684994335365
1662023733-740,"Affolternstrasse 103, 8050 Zürich, ZH",47.41026306152344,8.536553382873535,482763774,ALDI,POINT (8.536553382873535 47.41026306152344),POINT (8.5390336 47.4137334),470.8324899223194
1662023793-1182,"Zürcherstrasse 5, 8102 Oberengstringen, ZH",47.405029296875,8.47723388671875,1287601534,ALDI,POINT (8.47723388671875 47.405029296875),POINT (8.4593802 47.3986111),2107.0017237895895
1662023767-994,"Forchstr. 26, 8008 Zürich, ZH",47.363990783691406,8.556114196777344,765567648,ALDI,POINT (8.556114196777344 47.363990783691406),POINT (8.5376871 47.3737558),2313.3015206047835
1662023739-789,"Langgrütstrasse 96, 8047 Zürich, ZH",47.37327575683594,8.495824813842773,4868938542,ALDI,POINT (8.495824813842773 47.37327575683594),POINT (8.4978671 47.3838311),1182.8225996587987
1662023774-1053,"Scheffelstrasse 11, 8037 Zürich, ZH",47.39439010620117,8.529122352600098,4423175779,ALDI,POINT (8.529122352600098 47.39439010620117),POINT (8.5332829 47.3808159),1562.730728083887
1662023695-456,"8005 Zürich, ZH",47.38420486450195,8.531729698181152,4423175779,ALDI,POINT (8.531729698181152 47.38420486450195),POINT (8.5332829 47.3808159),410.73976011268024
1662023789-1167,"Magdalenenstrasse 9, 8050 Zürich, ZH",47.40725326538086,8.551426887512207,1052078781,ALDI,POINT (8.551426887512207 47.40725326538086),POINT (8.5568084 47.4193147),1454.9983842994536
1662023767-988,"Kreuzstrasse 55, 8008 Zürich, ZH",47.364540100097656,8.552120208740234,765567648,ALDI,POINT (8.552120208740234 47.364540100097656),POINT (8.5376871 47.3737558),1898.0447715539608
1662023742-803,"Emil Oprecht-Str. 1, 8050 Zürich, ZH",47.41197967529297,8.541033744812012,482763774,ALDI,POINT (8.541033744812012 47.41197967529297),POINT (8.5390336 47.4137334),294.3686213741147
1662023704-517,"Schaffhauserstrasse 475, 8052 Zürich, ZH",47.42020034790039,8.54835319519043,1052078781,ALDI,POINT (8.54835319519043 47.42020034790039),POINT (8.5568084 47.4193147),945.2060156300463
1662023789-1162,"Seefeldstr. 117, 8008 Zürich, ZH",47.35837936401367,8.554369926452637,765567648,ALDI,POINT (8.554369926452637 47.35837936401367),POINT (8.5376871 47.3737558),2509.978287990487
1662023755-893,"Röntgenstrasse 48, 8005 Zürich, ZH",47.38470458984375,8.527143478393555,4423175779,ALDI,POINT (8.527143478393555 47.38470458984375),POINT (8.5332829 47.3808159),805.5433034281865
1662023789-1170,"Dennlerstr. 24, 8047 Zürich, ZH",47.38156127929688,8.497806549072266,4868938542,ALDI,POINT (8.497806549072266 47.38156127929688),POINT (8.4978671 47.3838311),249.71242696159712
1662023704-515,"Jungholzstrasse 20, 8050 Zürich, ZH",47.41342544555664,8.54434871673584,482763774,ALDI,POINT (8.54434871673584 47.41342544555664),POINT (8.5390336 47.4137334),591.9833439600723
1662023698-466,"Waffenplatzstrasse 80, 8002 Zürich, ZH",47.35564804077149,8.52674674987793,75749133,ALDI,POINT (8.52674674987793 47.35564804077149),POINT (8.5306007 47.3409666),1670.3569446015222
1662023720-643,"Badenerstrasse 595, 8048 Zürich, ZH",47.3852653503418,8.49389934539795,267344304,ALDI,POINT (8.49389934539795 47.3852653503418),POINT (8.4965956 47.3883215),450.3876095536603
1662023764-983,"Am Wasser 161, 8049 Zürich, ZH",47.3994369506836,8.495816230773926,267344304,ALDI,POINT (8.495816230773926 47.3994369506836),POINT (8.4965956 47.3883215),1225.485674413512
1662023745-821,"Ackerstrasse 55, 8005 Zürich, ZH",47.383338928222656,8.532877922058105,4423175779,ALDI,POINT (8.532877922058105 47.383338928222656),POINT (8.5332829 47.3808159),281.0731323908871
1662023795-1207,"Imbisbühlstrasse 108, 8049 Zürich, ZH",47.40587615966797,8.487546920776367,267344304,ALDI,POINT (8.487546920776367 47.40587615966797),POINT (8.4965956 47.3883215),2177.049111264574
1662023692-409,"8055 Zürich, ZH",47.36378860473633,8.509098052978516,4868938542,ALDI,POINT (8.509098052978516 47.36378860473633),POINT (8.4978671 47.3838311),2533.3234258202338
1662023745-836,"Neudorfstr. 17, 8050 Zürich, ZH",47.41176223754883,8.547621726989746,482763774,ALDI,POINT (8.547621726989746 47.41176223754883),POINT (8.5390336 47.4137334),979.2457897105096
1662023789-1173,"Gerhardstrasse 8, 8003 Zürich, ZH",47.37050247192383,8.523018836975098,4423175779,ALDI,POINT (8.523018836975098 47.37050247192383),POINT (8.5332829 47.3808159),1608.981837559234
1662023783-1108,"Karstlernstrasse 14, 8048 Zürich, ZH",47.3899040222168,8.47831916809082,267344304,ALDI,POINT (8.47831916809082 47.3899040222168),POINT (8.4965956 47.3883215),2039.6853243519242
1662023767-995,"Kreuzstrasse 55, 8008 Zürich, ZH",47.364540100097656,8.552120208740234,765567648,ALDI,POINT (8.552120208740234 47.364540100097656),POINT (8.5376871 47.3737558),1898.0447715539608
1662023698-458,"Scheffelstrasse 11, 8037 Zürich, ZH",47.39439010620117,8.529122352600098,4423175779,ALDI,POINT (8.529122352600098 47.39439010620117),POINT (8.5332829 47.3808159),1562.730728083887
1662023742-804,"Emil Oprecht-Str. 1, 8050 Zürich, ZH",47.41197967529297,8.541033744812012,482763774,ALDI,POINT (8.541033744812012 47.41197967529297),POINT (8.5390336 47.4137334),294.3686213741147
1662023701-493,"Herrligweg 9, 8048 Zürich, ZH",47.389892578125,8.484477996826172,267344304,ALDI,POINT (8.484477996826172 47.389892578125),POINT (8.4965956 47.3883215),1358.4488368323543
1662023745-837,"Elisabethenstrasse 28, 8004 Zürich, ZH",47.37369155883789,8.521880149841309,4423175779,ALDI,POINT (8.521880149841309 47.37369155883789),POINT (8.5332829 47.3808159),1490.4388532131052
1662023752-870,"Spindelstrasse 12, 8041 Zürich, ZH",47.33975982666016,8.517643928527832,75749133,ALDI,POINT (8.517643928527832 47.33975982666016),POINT (8.5306007 47.3409666),1446.8260357342951
1662023730-709,"Lehfrauenweg 10, 8053 Zürich, ZH",47.359649658203125,8.589973449707031,2857736035,ALDI,POINT (8.589973449707031 47.359649658203125),POINT (8.5918795 47.405948),5094.789156111782
1662023714-577,"Bachtobelstrasse 23, 8045 Zürich, ZH",47.36090850830078,8.516180038452148,75749133,ALDI,POINT (8.516180038452148 47.36090850830078),POINT (8.5306007 47.3409666),2716.661367799875
1662023786-1148,"Uhlandstrasse 6, 8037 Zürich, ZH",47.39446640014648,8.5289306640625,4423175779,ALDI,POINT (8.5289306640625 47.39446640014648),POINT (8.5332829 47.3808159),1577.1560062312633
1662023793-1189,"Herrligstrasse 36, 8048 Zürich, ZH",47.38893127441406,8.48462200164795,267344304,ALDI,POINT (8.48462200164795 47.38893127441406),POINT (8.4965956 47.3883215),1333.091191573848
1662023786-1142,"Hubenstr. 14, 8057 Zürich, ZH",47.4035758972168,8.558526039123535,1052078781,ALDI,POINT (8.558526039123535 47.4035758972168),POINT (8.5568084 47.4193147),1741.098071738458
1662023795-1209,"Gustav-Gull-Platz 11, 8004 Zürich, ZH",47.379425048828125,8.5318021774292,4423175779,ALDI,POINT (8.5318021774292 47.379425048828125),POINT (8.5332829 47.3808159),224.72439591278925
1662023813-1363,"Nelkenstrasse 20, 8006 Zürich, ZH",47.38184356689453,8.546545028686523,765567648,ALDI,POINT (8.546545028686523 47.38184356689453),POINT (8.5376871 47.3737558),1327.0530377706496
1662023780-1104,"Gustav-Gull-Platz 11, 8004 Zürich, ZH",47.379425048828125,8.5318021774292,4423175779,ALDI,POINT (8.5318021774292 47.379425048828125),POINT (8.5332829 47.3808159),224.72439591278925
1662023723-657,"Dörflistrasse 112, 8050 Zürich, ZH",47.41082382202149,8.547832489013672,482763774,ALDI,POINT (8.547832489013672 47.41082382202149),POINT (8.5390336 47.4137334),1029.3747248362295
1662023736-753,"Schwandenholzstrasse 260, 8046 Zürich, ZH",47.42427444458008,8.519989967346191,482763774,ALDI,POINT (8.519989967346191 47.42427444458008),POINT (8.5390336 47.4137334),2414.055007143903
1662023739-788,"Letzigraben 165, 8047 Zürich, ZH",47.37402725219727,8.495600700378418,4868938542,ALDI,POINT (8.495600700378418 47.37402725219727),POINT (8.4978671 47.3838311),1107.234094490822
1662023795-1218,"Maneggplatz 40, 8041 Zürich, ZH",47.33966827392578,8.520100593566895,75749133,ALDI,POINT (8.520100593566895 47.33966827392578),POINT (8.5306007 47.3409666),1176.2554420268368
1662023745-833,"Jonas-Furrer-Str. 21, 8046 Zürich, ZH",47.42037582397461,8.508238792419434,482763774,ALDI,POINT (8.508238792419434 47.42037582397461),POINT (8.5390336 47.4137334),3501.2679585805167
1662023714-591,"Schulhausstrasse 47, 8002 Zürich, ZH",47.36001968383789,8.528043746948242,765567648,ALDI,POINT (8.528043746948242 47.36001968383789),POINT (8.5376871 47.3737558),1852.3927206032322
1662023793-1187,"Hagenholzstrasse 66, 8050 Zürich, ZH",47.4133186340332,8.556182861328125,1052078781,ALDI,POINT (8.556182861328125 47.4133186340332),POINT (8.5568084 47.4193147),662.9700779785638
1662023767-999,"Holderbachweg 8, 8046 Zürich, ZH",47.41841506958008,8.504903793334961,267344304,ALDI,POINT (8.504903793334961 47.41841506958008),POINT (8.4965956 47.3883215),3436.0128939497827
1662023801-1268,"Jungstrasse 18, 8050 Zürich, ZH",47.41508865356445,8.543237686157227,482763774,ALDI,POINT (8.543237686157227 47.41508865356445),POINT (8.5390336 47.4137334),490.6524288627423
1662023739-790,"Badenerstrasse  250, 8004 Zürich, ZH",47.3759880065918,8.516037940979004,4423175779,ALDI,POINT (8.516037940979004 47.3759880065918),POINT (8.5332829 47.3808159),1989.6901900412736
1662023749-852,"Altstetterstrasse 178, 8048 Zürich, ZH",47.385684967041016,8.485180854797363,267344304,ALDI,POINT (8.485180854797363 47.385684967041016),POINT (8.4965956 47.3883215),1301.9599650447024
1662023786-1147,"Etzelstrasse 6, 8038 Zürich, ZH",47.34442138671875,8.530671119689941,75749133,ALDI,POINT (8.530671119689941 47.34442138671875),POINT (8.5306007 47.3409666),379.985419800703
1662023786-1145,"Heliosstrasse 12, 8032 Zürich, ZH",47.36385345458984,8.559439659118652,765567648,ALDI,POINT (8.559439659118652 47.36385345458984),POINT (8.5376871 47.3737558),2652.5609871779634
1662023711-564,"Baurstrasse 29, 8008 Zürich, ZH",47.35592269897461,8.554497718811035,765567648,ALDI,POINT (8.554497718811035 47.35592269897461),POINT (8.5376871 47.3737558),2709.1279385176626
1662023798-1238,"Feldblumenstrasse 10, 8048 Zürich, ZH",47.38809967041016,8.482545852661133,267344304,ALDI,POINT (8.482545852661133 47.38809967041016),POINT (8.4965956 47.3883215),1562.4510958103256
1662023723-667,"8001 Zürich, ZH",47.368934631347656,8.54139232635498,765567648,ALDI,POINT (8.54139232635498 47.368934631347656),POINT (8.5376871 47.3737558),671.4171237990355
1662023810-1333,"Maneggplatz 14, 8041 Zürich, ZH",47.34020614624024,8.520726203918457,75749133,ALDI,POINT (8.520726203918457 47.34020614624024),POINT (8.5306007 47.3409666),1101.1737093205252
1662023692-431,"8057 Zürich, ZH",47.393585205078125,8.539556503295898,4423175779,ALDI,POINT (8.539556503295898 47.393585205078125),POINT (8.5332829 47.3808159),1567.8899350137178
1662023810-1338,"Feldstrasse 40, 8004 Zürich, ZH",47.3758544921875,8.521323204040527,4423175779,ALDI,POINT (8.521323204040527 47.3758544921875),POINT (8.5332829 47.3808159),1437.4225771011488
1662023698-472,"Badenerstrasse 595, 8048 Zürich, ZH",47.3852653503418,8.49389934539795,267344304,ALDI,POINT (8.49389934539795 47.3852653503418),POINT (8.4965956 47.3883215),450.3876095536603
1662023801-1260,"am Oeschbrig 5, 8053 Zürich, ZH",47.35725784301758,8.599966049194336,2857736035,ALDI,POINT (8.599966049194336 47.35725784301758),POINT (8.5918795 47.405948),5428.273970175354
1662023739-786,"Letzigraben 165, 8047 Zürich, ZH",47.37402725219727,8.495600700378418,4868938542,ALDI,POINT (8.495600700378418 47.37402725219727),POINT (8.4978671 47.3838311),1107.234094490822
1662023761-943,"Am Wasser 161, 8049 Zürich, ZH",47.3994369506836,8.495816230773926,267344304,ALDI,POINT (8.495816230773926 47.3994369506836),POINT (8.4965956 47.3883215),1225.485674413512
1662023739-785,"Letzigraben 165, 8047 Zürich, ZH",47.37402725219727,8.495600700378418,4868938542,ALDI,POINT (8.495600700378418 47.37402725219727),POINT (8.4978671 47.3838311),1107.234094490822
1662023793-1194,"Mühlebachstrasse 76, 8008 Zürich, ZH",47.36259078979492,8.553037643432617,765567648,ALDI,POINT (8.553037643432617 47.36259078979492),POINT (8.5376871 47.3737558),2102.567096212717
1662023761-949,"Soodstrasse 90, 8041 Zürich, ZH",47.32560729980469,8.51819896697998,8062028222,ALDI,POINT (8.51819896697998 47.32560729980469),POINT (8.5210608 47.3161717),1085.3137406538165
1662023795-1206,"Bühlstrasse 45C, 8055 Zürich, ZH",47.36454772949219,8.51507568359375,4423175779,ALDI,POINT (8.51507568359375 47.36454772949219),POINT (8.5332829 47.3808159),2701.69659716222
1662023714-585,"Riedenhaldenstrasse 254, 8046 Zürich, ZH",47.41985702514648,8.510608673095703,482763774,ALDI,POINT (8.510608673095703 47.41985702514648),POINT (8.5390336 47.4137334),3231.645276839714
1662023755-907,"Oerlikonerstrasse 87, 8057 Zürich, ZH",47.4050407409668,8.546213150024414,482763774,ALDI,POINT (8.546213150024414 47.4050407409668),POINT (8.5390336 47.4137334),1245.3877833079305
1662023714-579,"Bachmattstr. 59, 8048 Zürich, ZH",47.389041900634766,8.483692169189453,267344304,ALDI,POINT (8.483692169189453 47.389041900634766),POINT (8.4965956 47.3883215),1436.9817704302438
1662023689-385,"8053 Zürich, ZH",47.35861587524414,8.578998565673828,765567648,ALDI,POINT (8.578998565673828 47.35861587524414),POINT (8.5376871 47.3737558),4885.974143323802
1662023736-756,"Birmensdorferstrasse 598, 8055 Zürich, ZH",47.36793518066406,8.488553047180176,4868938542,ALDI,POINT (8.488553047180176 47.36793518066406),POINT (8.4978671 47.3838311),2031.918415326531
1662023752-869,"Schrennengasse 14, 8003 Zürich, ZH",47.36940383911133,8.516093254089355,4423175779,ALDI,POINT (8.516093254089355 47.36940383911133),POINT (8.5332829 47.3808159),2286.5562492959684
1662023704-528,"Redingstrasse 3, 8038 Zürich, ZH",47.34896087646485,8.526168823242188,75749133,ALDI,POINT (8.526168823242188 47.34896087646485),POINT (8.5306007 47.3409666),1007.7994894679252
1662023711-559,"Birmensdorferstrasse 596, 8055 Zürich, ZH",47.3679084777832,8.488808631896973,4868938542,ALDI,POINT (8.488808631896973 47.3679084777832),POINT (8.4978671 47.3838311),2020.125493923582
1662023749-843,"Ottikerstrasse 11, 8006 Zürich, ZH",47.385704040527344,8.542648315429688,4423175779,ALDI,POINT (8.542648315429688 47.385704040527344),POINT (8.5332829 47.3808159),1171.9241553113875
1662023780-1102,"Zeltweg 68, 8032 Zürich, ZH",47.36709213256836,8.552876472473145,765567648,ALDI,POINT (8.552876472473145 47.36709213256836),POINT (8.5376871 47.3737558),1841.0773406753103
1662023804-1280,"Hallenstrasse 8, 8008 Zürich, ZH",47.36317825317383,8.54866886138916,765567648,ALDI,POINT (8.54866886138916 47.36317825317383),POINT (8.5376871 47.3737558),1686.4075564618113
1662023701-489,"8057 Zürich, ZH",47.393585205078125,8.539556503295898,4423175779,ALDI,POINT (8.539556503295898 47.393585205078125),POINT (8.5332829 47.3808159),1567.8899350137178
1662023801-1267,"Färberstrasse 27, 8008 Zürich, ZH",47.36214065551758,8.549431800842285,765567648,ALDI,POINT (8.549431800842285 47.36214065551758),POINT (8.5376871 47.3737558),1826.6860066540276
1662023780-1094,"Stampfenbachplatz 4, 8006 Zürich, ZH",47.380401611328125,8.542487144470215,765567648,ALDI,POINT (8.542487144470215 47.380401611328125),POINT (8.5376871 47.3737558),904.9466420565907
1662023764-975,"Wehrenbachhalde 39, 8053 Zürich, ZH",47.35622787475586,8.580233573913574,765567648,ALDI,POINT (8.580233573913574 47.35622787475586),POINT (8.5376871 47.3737558),5108.466827629491
1662023761-948,"Seefeldstr. 168, 8008 Zürich, ZH",47.35554504394531,8.556349754333496,765567648,ALDI,POINT (8.556349754333496 47.35554504394531),POINT (8.5376871 47.3737558),2883.7909682741306
1662023749-859,"Käferholzstrasse 60, 8057 Zürich, ZH",47.40255355834961,8.532090187072754,482763774,ALDI,POINT (8.532090187072754 47.40255355834961),POINT (8.5390336 47.4137334),1451.7067498706497
1662023686-383,"Hinterbergstrasse 57, 8044 Zürich, ZH",47.38201522827149,8.556857109069824,765567648,ALDI,POINT (8.556857109069824 47.38201522827149),POINT (8.5376871 47.3737558),2317.021860134149
1662023804-1287,"Höschgasse 46, 8008 Zürich, ZH",47.357513427734375,8.55413818359375,765567648,ALDI,POINT (8.55413818359375 47.357513427734375),POINT (8.5376871 47.3737558),2556.5817825325294
1662023733-739,"Imbisbühlstrasse 110, 8049 Zürich, ZH",47.40596771240234,8.487181663513184,267344304,ALDI,POINT (8.487181663513184 47.40596771240234),POINT (8.4965956 47.3883215),2204.9726550314126
1662023807-1306,"Feldstrasse 39, 8004 Zürich, ZH",47.3762092590332,8.521111488342285,4423175779,ALDI,POINT (8.521111488342285 47.3762092590332),POINT (8.5332829 47.3808159),1445.0969905680756
1662023786-1146,"Beckhammer 19, 8057 Zürich, ZH",47.40105819702149,8.541216850280762,482763774,ALDI,POINT (8.541216850280762 47.40105819702149),POINT (8.5390336 47.4137334),1414.774985812927
1662023761-939,"Grosswiesenstrasse 20, 8051 Zürich, ZH",47.40337371826172,8.583436012268066,2857736035,ALDI,POINT (8.583436012268066 47.40337371826172),POINT (8.5918795 47.405948),980.6084444331485
1662023752-882,"Soodstrasse 90, 8041 Zürich, ZH",47.32560729980469,8.51819896697998,8062028222,ALDI,POINT (8.51819896697998 47.32560729980469),POINT (8.5210608 47.3161717),1085.3137406538165
1662023711-555,"Balberstrasse 68, 8038 Zürich, ZH",47.33802795410156,8.526716232299805,75749133,ALDI,POINT (8.526716232299805 47.33802795410156),POINT (8.5306007 47.3409666),539.4363284950292
1662023780-1103,"Am Wasser 161, 8049 Zürich, ZH",47.3994369506836,8.495816230773926,267344304,ALDI,POINT (8.495816230773926 47.3994369506836),POINT (8.4965956 47.3883215),1225.485674413512
1662023761-946,"Am Wasser 161, 8049 Zürich, ZH",47.3994369506836,8.495816230773926,267344304,ALDI,POINT (8.495816230773926 47.3994369506836),POINT (8.4965956 47.3883215),1225.485674413512
1662023798-1237,"Im Holzerhurd 60, 8046 Zürich, ZH",47.42334747314453,8.496809005737305,267344304,ALDI,POINT (8.496809005737305 47.42334747314453),POINT (8.4965956 47.3883215),3852.036698991683
1662023695-454,"Rosmarinweg 3, 8057 Zürich, ZH",47.40321350097656,8.550189971923828,482763774,ALDI,POINT (8.550189971923828 47.40321350097656),POINT (8.5390336 47.4137334),1696.1867190284202
1662023774-1047,"Hohenklingenstrasse 45, 8049 Zürich, ZH",47.40235137939453,8.490530014038086,267344304,ALDI,POINT (8.490530014038086 47.40235137939453),POINT (8.4965956 47.3883215),1683.9144714874801
1662023755-898,"Höschgasse 76, 8008 Zürich, ZH",47.35784912109375,8.556351661682129,765567648,ALDI,POINT (8.556351661682129 47.35784912109375),POINT (8.5376871 47.3737558),2714.157427847427
1662023758-919,"Baslerstrasse 31, 8048 Zürich, ZH",47.384037017822266,8.5020751953125,4868938542,ALDI,POINT (8.5020751953125 47.384037017822266),POINT (8.4978671 47.3838311),468.46650802655057
1662023793-1192,"Neunbrunnenstr. 153, 8050 Zürich, ZH",47.41574478149414,8.532227516174316,482763774,ALDI,POINT (8.532227516174316 47.41574478149414),POINT (8.5390336 47.4137334),788.4599108259191
1662023727-688,"Sihlhallenstrasse 28, 8004 Zürich, ZH",47.38012313842773,8.526421546936035,4423175779,ALDI,POINT (8.526421546936035 47.38012313842773),POINT (8.5332829 47.3808159),766.7414391172478
1662023761-942,"Badenerstrasse 250, 8004 Zürich, ZH",47.3759880065918,8.516037940979004,4423175779,ALDI,POINT (8.516037940979004 47.3759880065918),POINT (8.5332829 47.3808159),1989.6901900412736
1662023793-1184,"Dörflistrasse 112, 8050 Zürich, ZH",47.41082382202149,8.547832489013672,482763774,ALDI,POINT (8.547832489013672 47.41082382202149),POINT (8.5390336 47.4137334),1029.3747248362295
1662023698-469,"Klosbachstrasse 44, 8032 Zürich, ZH",47.36623764038086,8.557329177856445,765567648,ALDI,POINT (8.557329177856445 47.36623764038086),POINT (8.5376871 47.3737558),2335.319330790916
1662023730-700,"Birchstrasse 98, 8050 Zürich, ZH",47.407814025878906,8.536985397338867,482763774,ALDI,POINT (8.536985397338867 47.407814025878906),POINT (8.5390336 47.4137334),689.6039580144045
1662023692-415,"Badenerstrasse 701, 8048 Zürich, ZH",47.387939453125,8.483872413635254,267344304,ALDI,POINT (8.483872413635254 47.387939453125),POINT (8.4965956 47.3883215),1415.3775456674557
1662023714-580,"Wehntalerstrasse 402, 8046 Zürich, ZH",47.41493225097656,8.516685485839844,482763774,ALDI,POINT (8.516685485839844 47.41493225097656),POINT (8.5390336 47.4137334),2488.4913944578825
1662023764-973,"Forchstrasse 261, 8032 Zürich, ZH",47.364723205566406,8.55510139465332,765567648,ALDI,POINT (8.55510139465332 47.364723205566406),POINT (8.5376871 47.3737558),2176.2513435058027
1662023745-835,"Im Heuried 52, 8055 Zürich, ZH",47.36848831176758,8.508621215820312,4868938542,ALDI,POINT (8.508621215820312 47.36848831176758),POINT (8.4978671 47.3838311),2068.0621368594207
1662023783-1112,"Bachmattstrasse 66, 8048 Zürich, ZH",47.389068603515625,8.483251571655273,267344304,ALDI,POINT (8.483251571655273 47.389068603515625),POINT (8.4965956 47.3883215),1486.0613939130087
1662023742-807,"Langfurrenstrasse 5c, 8623 Wetzikon ZH, ZH",47.32863235473633,8.810400009155273,6815640223,Volg,POINT (8.810400009155273 47.32863235473633),POINT (8.811601 47.3325792),453.78530259510535
1662023755-900,"8620 Wetzikon ZH, ZH",47.31372833251953,8.828516006469727,6815640223,Volg,POINT (8.828516006469727 47.31372833251953),POINT (8.811601 47.3325792),2797.8685682606274
1662023793-1186,"Rosenstrasse 1, 8623 Wetzikon ZH, ZH",47.33300018310547,8.808183670043945,6815640223,Volg,POINT (8.808183670043945 47.33300018310547),POINT (8.811601 47.3325792),382.7951139564879
1662023739-781,"Langfurrenstrasse 5c, 8623 Wetzikon ZH, ZH",47.32863235473633,8.810400009155273,6815640223,Volg,POINT (8.810400009155273 47.32863235473633),POINT (8.811601 47.3325792),453.78530259510535
1662023767-1004,"Spitalstr. 157, 8620 Wetzikon ZH, ZH",47.32657241821289,8.808747291564941,6815640223,Volg,POINT (8.808747291564941 47.32657241821289),POINT (8.811601 47.3325792),732.357400322661
1662023695-437,"Pappelnstr. 14, 8620 Wetzikon ZH, ZH",47.32851409912109,8.80092716217041,6815640223,Volg,POINT (8.80092716217041 47.32851409912109),POINT (8.811601 47.3325792),1268.1514458807296
1662023752-865,"Langfurrenstrasse 5a, 8623 Wetzikon ZH, ZH",47.3288459777832,8.80976390838623,6815640223,Volg,POINT (8.80976390838623 47.3288459777832),POINT (8.811601 47.3325792),458.2644708482197
1662023698-478,"Kirchgasse 4, 8620 Wetzikon ZH, ZH",47.32634353637695,8.797727584838867,6815640223,Volg,POINT (8.797727584838867 47.32634353637695),POINT (8.811601 47.3325792),1687.9819700540745
1662023739-773,"Langfurrenstrasse 5b, 8623 Wetzikon ZH, ZH",47.3287239074707,8.810142517089844,6815640223,Volg,POINT (8.810142517089844 47.3287239074707),POINT (8.811601 47.3325792),453.61165201105325
1662023689-388,"8620 Wetzikon ZH, ZH",47.31372833251953,8.828516006469727,6815640223,Volg,POINT (8.828516006469727 47.31372833251953),POINT (8.811601 47.3325792),2797.8685682606274
1662023807-1305,"Weststrasse 66, 8620 Wetzikon ZH, ZH",47.32967376708984,8.796716690063477,6815640223,Volg,POINT (8.796716690063477 47.32967376708984),POINT (8.811601 47.3325792),1685.5715621893607
1662023767-1005,"Bahnhofstrasse 117, 8620 Wetzikon ZH, ZH",47.32510757446289,8.798135757446289,6815640223,Volg,POINT (8.798135757446289 47.32510757446289),POINT (8.811601 47.3325792),1707.593304570414
1662023701-485,"Schneggenstr. 24, 8620 Wetzikon ZH, ZH",47.32073593139648,8.8002290725708,6815640223,Volg,POINT (8.8002290725708 47.32073593139648),POINT (8.811601 47.3325792),1814.5450169738247
1662023764-970,"Guyer-Zeller-Strasse 1, 8620 Wetzikon ZH, ZH",47.314697265625,8.793615341186523,6815640223,Volg,POINT (8.793615341186523 47.314697265625),POINT (8.811601 47.3325792),2803.6982940762
1662023761-959,"Weststrasse 68, 8620 Wetzikon ZH, ZH",47.3298454284668,8.796719551086426,6815640223,Volg,POINT (8.796719551086426 47.3298454284668),POINT (8.811601 47.3325792),1681.7876991692117
1662023801-1264,"Messikommerstrasse 37, 8620 Wetzikon ZH, ZH",47.32208251953125,8.792054176330566,6815640223,Volg,POINT (8.792054176330566 47.32208251953125),POINT (8.811601 47.3325792),2460.5978056621425
1662023742-805,"Zelglistrasse 11A, 8620 Wetzikon ZH, ZH",47.33001327514648,8.786087989807129,6815640223,Volg,POINT (8.786087989807129 47.33001327514648),POINT (8.811601 47.3325792),2850.8948103504235
1662023704-523,"Bahnhofstrasse 148, 8620 Wetzikon ZH, ZH",47.32648849487305,8.798989295959473,6815640223,Volg,POINT (8.798989295959473 47.32648849487305),POINT (8.811601 47.3325792),1553.8769707831132
1662023742-816,"Usterstrasse 44, 8620 Wetzikon ZH, ZH",47.32724380493164,8.794759750366211,6815640223,Volg,POINT (8.794759750366211 47.32724380493164),POINT (8.811601 47.3325792),1962.290880679874
1662023749-858,"Blaketen 6, 8620 Wetzikon ZH, ZH",47.3231086730957,8.799917221069336,6815640223,Volg,POINT (8.799917221069336 47.3231086730957),POINT (8.811601 47.3325792),1664.5834380369001
1662023804-1290,"Sandbuckweg 5A, 8157 Dielsdorf, ZH",47.47749328613281,8.456284523010254,427706514,Volg,POINT (8.456284523010254 47.47749328613281),POINT (8.4538601 47.4813558),503.14084750029775
1662023701-499,"Heugasse 2, 8157 Dielsdorf, ZH",47.48674392700195,8.452263832092285,427706514,Volg,POINT (8.452263832092285 47.48674392700195),POINT (8.4538601 47.4813558),618.634057036179
1662023695-438,"Altmoosstrasse 17, 8157 Dielsdorf, ZH",47.47696685791016,8.454099655151367,427706514,Volg,POINT (8.454099655151367 47.47696685791016),POINT (8.4538601 47.4813558),483.45968963397615
1662023786-1133,"Krummibuckweg 9, 8157 Dielsdorf, ZH",47.48097229003906,8.460487365722656,427706514,Volg,POINT (8.460487365722656 47.48097229003906),POINT (8.4538601 47.4813558),738.1245330337484
1662023745-839,"Mühlestrasse 1, 8157 Dielsdorf, ZH",47.48301696777344,8.453057289123535,427706514,Volg,POINT (8.453057289123535 47.48301696777344),POINT (8.4538601 47.4813558),203.34841185391883
1662023692-410,"8157 Dielsdorf, ZH",47.483341217041016,8.461685180664062,427706514,Volg,POINT (8.461685180664062 47.483341217041016),POINT (8.4538601 47.4813558),897.0922132622252
1662023758-918,"Krummibuckweg 6, 8157 Dielsdorf, ZH",47.48119354248047,8.459864616394043,427706514,Volg,POINT (8.459864616394043 47.48119354248047),POINT (8.4538601 47.4813558),667.9102186088132
1662023704-512,"Regensbergstrasse 8, 8157 Dielsdorf, ZH",47.48210144042969,8.452489852905273,427706514,Volg,POINT (8.452489852905273 47.48210144042969),POINT (8.4538601 47.4813558),173.03382665233553
1662023707-544,"Ifangweg 1, 8610 Uster, ZH",47.35888671875,8.71379566192627,366489192,Volg,POINT (8.71379566192627 47.35888671875),POINT (8.6925652 47.3895254),4112.660891697795
1662023786-1135,"Unterbühlenstr. 3B, 8610 Uster, ZH",47.344234466552734,8.707965850830078,366489192,Volg,POINT (8.707965850830078 47.344234466552734),POINT (8.6925652 47.3895254),5264.481674338386
1662023764-971,"Ifangweg 8, 8610 Uster, ZH",47.35796356201172,8.714289665222168,366489192,Volg,POINT (8.714289665222168 47.35796356201172),POINT (8.6925652 47.3895254),4227.2977333104445
1662023736-766,"Steigstr. 3, 8610 Uster, ZH",47.34431076049805,8.730061531066895,366489192,Volg,POINT (8.730061531066895 47.34431076049805),POINT (8.6925652 47.3895254),6487.004613761274
1662023793-1198,"Poststr. 3, 8610 Uster, ZH",47.34947967529297,8.718282699584961,366489192,Volg,POINT (8.718282699584961 47.34947967529297),POINT (8.6925652 47.3895254),5248.957580572821
1662023786-1129,"Meierackerstr. 4, 8610 Uster, ZH",47.36004257202149,8.716106414794922,366489192,Volg,POINT (8.716106414794922 47.36004257202149),POINT (8.6925652 47.3895254),4165.757687539439
1662023745-828,"Gerichtsstrasse 5, 8610 Uster, ZH",47.35003280639648,8.716350555419922,366489192,Volg,POINT (8.716350555419922 47.35003280639648),POINT (8.6925652 47.3895254),5083.06403539633
1662023793-1178,"Florastr. 14, 8610 Uster, ZH",47.34764862060547,8.71961498260498,366489192,Volg,POINT (8.71961498260498 47.34764862060547),POINT (8.6925652 47.3895254),5498.446935237718
1662023761-957,"Oberlandstr. 75, 8610 Uster, ZH",47.35482406616211,8.715861320495605,366489192,Volg,POINT (8.715861320495605 47.35482406616211),POINT (8.6925652 47.3895254),4610.654151984065
1662023707-551,"Ifangweg 7, 8610 Uster, ZH",47.3585090637207,8.714330673217773,366489192,Volg,POINT (8.714330673217773 47.3585090637207),POINT (8.6925652 47.3895254),4180.871441547955
1662023789-1155,"Brunnenwiesenstr. 40, 8610 Uster, ZH",47.3547248840332,8.717199325561523,366489192,Volg,POINT (8.717199325561523 47.3547248840332),POINT (8.6925652 47.3895254),4704.709706683887
1662023758-935,"Aathalstrasse 34, 8610 Uster, ZH",47.34529876708984,8.72988510131836,366489192,Volg,POINT (8.72988510131836 47.34529876708984),POINT (8.6925652 47.3895254),6391.438057599922
1662023780-1082,"Wermatswilerstrasse 91, 8610 Uster, ZH",47.35652542114258,8.729662895202637,366489192,Volg,POINT (8.729662895202637 47.35652542114258),POINT (8.6925652 47.3895254),5492.914843920221
1662023767-1002,"Breitigasse 5, 8610 Uster, ZH",47.34422302246094,8.734959602355957,366489192,Volg,POINT (8.734959602355957 47.34422302246094),POINT (8.6925652 47.3895254),6856.758061198422
1662023758-925,"Stöcklerstr. 6, 8610 Uster, ZH",47.34308242797852,8.734877586364746,366489192,Volg,POINT (8.734877586364746 47.34308242797852),POINT (8.6925652 47.3895254),6942.146344325935
1662023717-618,"Zeltweg 23, 8610 Uster, ZH",47.34798812866211,8.709195137023926,366489192,Volg,POINT (8.709195137023926 47.34798812866211),POINT (8.6925652 47.3895254),4925.842587224342
1662023795-1201,"Oberlandstr. 75, 8610 Uster, ZH",47.35482406616211,8.715861320495605,366489192,Volg,POINT (8.715861320495605 47.35482406616211),POINT (8.6925652 47.3895254),4610.654151984065
1662023767-1000,"Oberlandstr. 75, 8610 Uster, ZH",47.35482406616211,8.715861320495605,366489192,Volg,POINT (8.715861320495605 47.35482406616211),POINT (8.6925652 47.3895254),4610.654151984065
1662023795-1224,"Alte Blindenholzstrasse 3, 8616 Riedikon, ZH",47.33308029174805,8.712552070617676,569160130,Volg,POINT (8.712552070617676 47.33308029174805),POINT (8.6602514 47.322413),5932.596667165563
1662023720-625,"Seestrasse 139, 8610 Uster, ZH",47.34542083740234,8.697589874267578,569160130,Volg,POINT (8.697589874267578 47.34542083740234),POINT (8.6602514 47.322413),4861.480737959404
1662023807-1297,"Ifangweg 11, 8610 Uster, ZH",47.35829925537109,8.715127944946289,366489192,Volg,POINT (8.715127944946289 47.35829925537109),POINT (8.6925652 47.3895254),4251.400256068978
1662023807-1299,"Archstrasse 13, 8610 Uster, ZH",47.3439826965332,8.731561660766602,366489192,Volg,POINT (8.731561660766602 47.3439826965332),POINT (8.6925652 47.3895254),6622.659206846866
1662023758-917,"Bankstrasse 27, 8610 Uster, ZH",47.35177612304688,8.715166091918945,366489192,Volg,POINT (8.715166091918945 47.35177612304688),POINT (8.6925652 47.3895254),4850.923123081164
1662023758-924,"Breitigasse 9, 8610 Uster, ZH",47.34457015991211,8.7345552444458,366489192,Volg,POINT (8.7345552444458 47.34457015991211),POINT (8.6925652 47.3895254),6798.144139577883
1662023786-1140,"Gschwaderstrasse 40, 8610 Uster, ZH",47.35831832885742,8.713147163391113,366489192,Volg,POINT (8.713147163391113 47.35831832885742),POINT (8.6925652 47.3895254),4123.520688230352
1662023758-929,"Frohbergstr. 7, 8162 Steinmaur, ZH",47.48908615112305,8.448234558105469,427706514,Volg,POINT (8.448234558105469 47.48908615112305),POINT (8.4538601 47.4813558),1055.5576808881258
1662023727-685,"8306 Brüttisellen, ZH",47.42464065551758,8.63316535949707,411085512,Volg,POINT (8.63316535949707 47.42464065551758),POINT (8.6490187 47.4465768),2987.1118477899327
1662023736-749,"Eichstrasse 1, 8306 Brüttisellen, ZH",47.42432022094727,8.63115119934082,411085512,Volg,POINT (8.63115119934082 47.42432022094727),POINT (8.6490187 47.4465768),3151.789988594232
1662023733-725,"Wülflingerstrasse 48, 8400 Winterthur, ZH",47.506534576416016,8.714888572692871,4095400190,ALDI,POINT (8.714888572692871 47.506534576416016),POINT (8.7247563 47.4979013),1450.6249546001432
1662023733-731,"St. Gallerstrasse 42d, 8400 Winterthur, ZH",47.49749755859375,8.738823890686035,4095400190,ALDI,POINT (8.738823890686035 47.49749755859375),POINT (8.7247563 47.4979013),1564.8739721634518
1662023777-1057,"Wartstr. 28, 8400 Winterthur, ZH",47.50136184692383,8.720966339111328,4095400190,ALDI,POINT (8.720966339111328 47.50136184692383),POINT (8.7247563 47.4979013),567.6799186503308
1662023736-746,"Landvogt-Waser-Strasse 67, 8405 Winterthur, ZH",47.48586654663086,8.765941619873047,1247707400,Volg,POINT (8.765941619873047 47.48586654663086),POINT (8.790178300000001 47.521026),4710.800615085386
1662023739-784,"Wingertlistrasse 9, 8405 Winterthur, ZH",47.49017333984375,8.761757850646973,4095400190,ALDI,POINT (8.761757850646973 47.49017333984375),POINT (8.7247563 47.4979013),4201.13237490735
1662023739-775,"Hulfteggstrasse 16, 8400 Winterthur, ZH",47.49134826660156,8.753072738647461,4095400190,ALDI,POINT (8.753072738647461 47.49134826660156),POINT (8.7247563 47.4979013),3229.962260486089
1662023774-1040,"Seuzacherstr. 9a, 8400 Winterthur, ZH",47.51836013793945,8.72063159942627,4095400190,ALDI,POINT (8.72063159942627 47.51836013793945),POINT (8.7247563 47.4979013),2294.9051295567074
1662023723-659,"Oberseenerstrasse 77, 8405 Winterthur, ZH",47.48025131225586,8.771097183227539,1247707400,Volg,POINT (8.771097183227539 47.48025131225586),POINT (8.790178300000001 47.521026),4957.750031485931
1662023752-873,"Scheideggstrasse 8, 8400 Winterthur, ZH",47.49159622192383,8.750418663024902,4095400190,ALDI,POINT (8.750418663024902 47.49159622192383),POINT (8.7247563 47.4979013),2936.458866521665
1662023742-795,"Bollstrasse 64, 8405 Winterthur, ZH",47.48073196411133,8.759271621704102,4095400190,ALDI,POINT (8.759271621704102 47.48073196411133),POINT (8.7247563 47.4979013),4276.719458639503
1662023774-1054,"Scherrerstrasse 8, 8400 Winterthur, ZH",47.49733352661133,8.74233627319336,4095400190,ALDI,POINT (8.74233627319336 47.49733352661133),POINT (8.7247563 47.4979013),1955.7995703029803
1662023698-475,"Zürcherstrasse 57, 8406 Winterthur, ZH",47.49454498291016,8.711798667907715,4095400190,ALDI,POINT (8.711798667907715 47.49454498291016),POINT (8.7247563 47.4979013),1487.297216823025
1662023736-760,"Tösstalstrasse 174, 8400 Winterthur, ZH",47.488746643066406,8.75119686126709,4095400190,ALDI,POINT (8.75119686126709 47.488746643066406),POINT (8.7247563 47.4979013),3107.4493458586517
1662023813-1351,"Bollstrasse 66, 8405 Winterthur, ZH",47.480735778808594,8.759693145751953,4095400190,ALDI,POINT (8.759693145751953 47.480735778808594),POINT (8.7247563 47.4979013),4318.6476902608665
1662023749-855,"Pionierstr. 22, 8400 Winterthur, ZH",47.49772262573242,8.719924926757812,4095400190,ALDI,POINT (8.719924926757812 47.49772262573242),POINT (8.7247563 47.4979013),537.5829990828206
1662023752-888,"Zürcherstrasse 54, 8406 Winterthur, ZH",47.49507141113281,8.711730003356934,4095400190,ALDI,POINT (8.711730003356934 47.49507141113281),POINT (8.7247563 47.4979013),1481.4765270849925
1662023761-953,"Jägerstrasse 59, 8406 Winterthur, ZH",47.4949951171875,8.713829040527344,4095400190,ALDI,POINT (8.713829040527344 47.4949951171875),POINT (8.7247563 47.4979013),1256.3393415227745
1662023758-914,"Endlikerstrasse 106, 8400 Winterthur, ZH",47.48758316040039,8.752320289611816,4095400190,ALDI,POINT (8.752320289611816 47.48758316040039),POINT (8.7247563 47.4979013),3268.0341919644616
1662023804-1273,"Waldeggstrasse 8, 8405 Winterthur, ZH",47.48252487182617,8.759597778320312,4095400190,ALDI,POINT (8.759597778320312 47.48252487182617),POINT (8.7247563 47.4979013),4226.72582923503
1662023698-459,"General-Guisan-Strasse 25, 8400 Winterthur, ZH",47.49905014038086,8.733027458190918,4095400190,ALDI,POINT (8.733027458190918 47.49905014038086),POINT (8.7247563 47.4979013),928.3377683933385
1662023786-1138,"Gottfried Keller-Strasse 77, 8400 Winterthur, ZH",47.50571823120117,8.730652809143066,4095400190,ALDI,POINT (8.730652809143066 47.50571823120117),POINT (8.7247563 47.4979013),1080.745618873131
1662023761-938,"Landvogt-Waser-Strasse 69, 8405 Winterthur, ZH",47.4857292175293,8.766179084777832,1247707400,Volg,POINT (8.766179084777832 47.4857292175293),POINT (8.790178300000001 47.521026),4708.168964553482
1662023736-748,"Giesserstrasse 15, 8406 Winterthur, ZH",47.49040603637695,8.714092254638672,4095400190,ALDI,POINT (8.714092254638672 47.49040603637695),POINT (8.7247563 47.4979013),1443.86418598508
1662023720-646,"Wülflingerstrasse 151a, 8408 Winterthur, ZH",47.50883865356445,8.704948425292969,4095400190,ALDI,POINT (8.704948425292969 47.50883865356445),POINT (8.7247563 47.4979013),2509.241835058074
1662023707-531,"Zürcherstrasse 57, 8406 Winterthur, ZH",47.49454498291016,8.711798667907715,4095400190,ALDI,POINT (8.711798667907715 47.49454498291016),POINT (8.7247563 47.4979013),1487.297216823025
1662023717-615,"Florenstrasse 56, 8405 Winterthur, ZH",47.48488998413086,8.773792266845703,1247707400,Volg,POINT (8.773792266845703 47.48488998413086),POINT (8.790178300000001 47.521026),4369.091413664989
1662023771-1015,"Heiniweg 16, 8404 Winterthur, ZH",47.519168853759766,8.764608383178711,1247707400,Volg,POINT (8.764608383178711 47.519168853759766),POINT (8.790178300000001 47.521026),2850.5602414288155
1662023795-1211,"Agnesstrasse 2, 8406 Winterthur, ZH",47.494720458984375,8.714877128601074,4095400190,ALDI,POINT (8.714877128601074 47.494720458984375),POINT (8.7247563 47.4979013),1152.8036459386572
1662023804-1293,"Alte Römerstrasse 24, 8404 Winterthur, ZH",47.50394821166992,8.748668670654297,4095400190,ALDI,POINT (8.748668670654297 47.50394821166992),POINT (8.7247563 47.4979013),2740.7304800149273
1662023761-960,"Sulzbergstrasse 8, 8400 Winterthur, ZH",47.50327301025391,8.7293701171875,4095400190,ALDI,POINT (8.7293701171875 47.50327301025391),POINT (8.7247563 47.4979013),782.1541110176069
1662023745-829,"Rychenbergstr. 61, 8400 Winterthur, ZH",47.50851440429688,8.729952812194824,4095400190,ALDI,POINT (8.729952812194824 47.50851440429688),POINT (8.7247563 47.4979013),1301.7334955104782
1662023736-745,"Landvogt-Waser-Strasse 69, 8405 Winterthur, ZH",47.4857292175293,8.766179084777832,1247707400,Volg,POINT (8.766179084777832 47.4857292175293),POINT (8.790178300000001 47.521026),4708.168964553482
1662023745-826,"Wülflingerstrasse 349, 8408 Winterthur, ZH",47.51451873779297,8.683442115783691,7229823378,Volg,POINT (8.683442115783691 47.51451873779297),POINT (8.6751059 47.4725056),4710.259184329451
1662023789-1154,"Konradstrasse 12, 8400 Winterthur, ZH",47.5020751953125,8.722041130065918,4095400190,ALDI,POINT (8.722041130065918 47.5020751953125),POINT (8.7247563 47.4979013),549.181607986554
1662023767-997,"Wülflingerstrasse 151a, 8408 Winterthur, ZH",47.50883865356445,8.704948425292969,4095400190,ALDI,POINT (8.704948425292969 47.50883865356445),POINT (8.7247563 47.4979013),2509.241835058074
1662023717-620,"Else-Züblin-Strasse 112, 8404 Winterthur, ZH",47.50380325317383,8.763983726501465,1247707400,Volg,POINT (8.763983726501465 47.50380325317383),POINT (8.790178300000001 47.521026),3473.613030881976
1662023795-1204,"Else-Züblin-Str. 74, 8404 Winterthur, ZH",47.50324630737305,8.765312194824219,1247707400,Volg,POINT (8.765312194824219 47.50324630737305),POINT (8.790178300000001 47.521026),3385.660213569462
1662023774-1035,"Kreuzstrasse 7, 8400 Winterthur, ZH",47.50360870361328,8.72900104522705,4095400190,ALDI,POINT (8.72900104522705 47.50360870361328),POINT (8.7247563 47.4979013),785.0270725365938
1662023798-1234,"Neuwiesenstrasse 31, 8400 Winterthur, ZH",47.5003662109375,8.719480514526367,4095400190,ALDI,POINT (8.719480514526367 47.5003662109375),POINT (8.7247563 47.4979013),646.1753607527168
1662023774-1036,"Kreuzstrasse 7, 8400 Winterthur, ZH",47.50360870361328,8.72900104522705,4095400190,ALDI,POINT (8.72900104522705 47.50360870361328),POINT (8.7247563 47.4979013),785.0270725365938
1662023813-1349,"Wülflingerstrasse 2, 8400 Winterthur, ZH",47.50292205810547,8.724250793457031,4095400190,ALDI,POINT (8.724250793457031 47.50292205810547),POINT (8.7247563 47.4979013),554.6784284623157
1662023752-868,"Poststrasse 1, 8406 Winterthur, ZH",47.49065780639648,8.705796241760254,4095400190,ALDI,POINT (8.705796241760254 47.49065780639648),POINT (8.7247563 47.4979013),2253.5767914533203
1662023783-1120,"Unterwegli 35, 8404 Winterthur, ZH",47.50488662719727,8.752949714660645,4095400190,ALDI,POINT (8.752949714660645 47.50488662719727),POINT (8.7247563 47.4979013),3227.5983696534727
1662023793-1191,"Else-Züblin-Strasse 73, 8404 Winterthur, ZH",47.50276184082031,8.763882637023926,1247707400,Volg,POINT (8.763882637023926 47.50276184082031),POINT (8.790178300000001 47.521026),3546.533316118677
1662023707-539,"Hulfteggstr. 19, 8400 Winterthur, ZH",47.49119567871094,8.75192928314209,4095400190,ALDI,POINT (8.75192928314209 47.49119567871094),POINT (8.7247563 47.4979013),3110.077673925333
1662023804-1277,"Holzlegistr. 6, 8408 Winterthur, ZH",47.5120735168457,8.695403099060059,4095400190,ALDI,POINT (8.695403099060059 47.5120735168457),POINT (8.7247563 47.4979013),3616.581620396538
1662023783-1123,"Else-Züblin-Strasse 77, 8404 Winterthur, ZH",47.50312042236328,8.763753890991211,1247707400,Volg,POINT (8.763753890991211 47.50312042236328),POINT (8.790178300000001 47.521026),3536.268350186593
1662023789-1176,"Magazingasse 2, 8400 Winterthur, ZH",47.50620651245117,8.71890640258789,4095400190,ALDI,POINT (8.71890640258789 47.50620651245117),POINT (8.7247563 47.4979013),1120.8747125911068
1662023764-965,"Schaffhauserstrasse 29, 8400 Winterthur, ZH",47.50638198852539,8.723402976989746,4095400190,ALDI,POINT (8.723402976989746 47.50638198852539),POINT (8.7247563 47.4979013),944.1683244804685
1662023698-462,"Schlosshofstrasse 21, 8400 Winterthur, ZH",47.49552917480469,8.711296081542969,4095400190,ALDI,POINT (8.711296081542969 47.49552917480469),POINT (8.7247563 47.4979013),1519.2465799531844
1662023807-1304,"Breitestrasse 56, 8400 Winterthur, ZH",47.490455627441406,8.727546691894531,4095400190,ALDI,POINT (8.727546691894531 47.490455627441406),POINT (8.7247563 47.4979013),875.1848562269485
1662023707-534,"Tellstrasse 16a, 8400 Winterthur, ZH",47.50239181518555,8.720512390136719,4095400190,ALDI,POINT (8.720512390136719 47.50239181518555),POINT (8.7247563 47.4979013),682.8468292668987
1662023689-406,"Thurgauerstrasse 2, 8400 Winterthur, ZH",47.49839782714844,8.742392539978027,4095400190,ALDI,POINT (8.742392539978027 47.49839782714844),POINT (8.7247563 47.4979013),1961.819548866476
1662023736-758,"Nägelseestrasse 26, 8406 Winterthur, ZH",47.49116516113281,8.702677726745605,4095400190,ALDI,POINT (8.702677726745605 47.49116516113281),POINT (8.7247563 47.4979013),2564.236803989195
1662023764-977,"Türlimattstr. 1, 8404 Winterthur, ZH",47.50771713256836,8.74938678741455,4095400190,ALDI,POINT (8.74938678741455 47.50771713256836),POINT (8.7247563 47.4979013),2943.5973108689086
1662023723-672,"Wülflingerstrasse 151b, 8408 Winterthur, ZH",47.508567810058594,8.704839706420898,4095400190,ALDI,POINT (8.704839706420898 47.508567810058594),POINT (8.7247563 47.4979013),2505.794881426812
1662023686-379,"Seenerstrasse 218, 8405 Winterthur, ZH",47.48553466796875,8.758892059326172,4095400190,ALDI,POINT (8.758892059326172 47.48553466796875),POINT (8.7247563 47.4979013),4031.718725008458
1662023786-1132,"Römerstrasse 52, 8400 Winterthur, ZH",47.50064468383789,8.743654251098633,4095400190,ALDI,POINT (8.743654251098633 47.50064468383789),POINT (8.7247563 47.4979013),2122.8773448312236
1662023764-984,"Unt. Schöntalstrasse 5, 8406 Winterthur, ZH",47.49348831176758,8.708704948425293,4095400190,ALDI,POINT (8.708704948425293 47.49348831176758),POINT (8.7247563 47.4979013),1849.559994928315
1662023789-1156,"Weberstrasse 91, 8400 Winterthur, ZH",47.49053192138672,8.746732711791992,4095400190,ALDI,POINT (8.746732711791992 47.49053192138672),POINT (8.7247563 47.4979013),2574.391203865738
1662023749-864,"Jägerstrasse 59, 8406 Winterthur, ZH",47.4949951171875,8.713829040527344,4095400190,ALDI,POINT (8.713829040527344 47.4949951171875),POINT (8.7247563 47.4979013),1256.3393415227745
1662023807-1302,"Sulzbergstrasse 8, 8400 Winterthur, ZH",47.50327301025391,8.7293701171875,4095400190,ALDI,POINT (8.7293701171875 47.50327301025391),POINT (8.7247563 47.4979013),782.1541110176069
1662023786-1141,"Hündlerstrasse 77, 8406 Winterthur, ZH",47.481689453125,8.69902229309082,7229823378,Volg,POINT (8.69902229309082 47.481689453125),POINT (8.6751059 47.4725056),2844.5325941929286
1662023780-1089,"Else-Züblin-Strasse 77, 8404 Winterthur, ZH",47.50312042236328,8.763753890991211,1247707400,Volg,POINT (8.763753890991211 47.50312042236328),POINT (8.790178300000001 47.521026),3536.268350186593
1662023764-969,"Grüzefeldstrasse 44, 8400 Winterthur, ZH",47.49379348754883,8.751358032226562,4095400190,ALDI,POINT (8.751358032226562 47.49379348754883),POINT (8.7247563 47.4979013),2992.232221050239
1662023695-450,"Schaffhauserstrasse 32, 8400 Winterthur, ZH",47.50722503662109,8.723393440246582,4095400190,ALDI,POINT (8.723393440246582 47.50722503662109),POINT (8.7247563 47.4979013),1035.9018793532546
1662023749-863,"Seuzacherstr. 11a, 8400 Winterthur, ZH",47.51870727539063,8.720742225646973,4095400190,ALDI,POINT (8.720742225646973 47.51870727539063),POINT (8.7247563 47.4979013),2329.913232564024
1662023733-741,"General-Guisan-Strasse 43, 8400 Winterthur, ZH",47.49982833862305,8.733386993408203,4095400190,ALDI,POINT (8.733386993408203 47.49982833862305),POINT (8.7247563 47.4979013),982.7821187373657
1662023777-1059,"Türlimattstr. 3, 8404 Winterthur, ZH",47.50799179077149,8.749725341796875,4095400190,ALDI,POINT (8.749725341796875 47.50799179077149),POINT (8.7247563 47.4979013),2989.720471993426
1662023783-1105,"Katharina Sulzer Platz 8, 8400 Winterthur, ZH",47.49697113037109,8.717944145202637,4095400190,ALDI,POINT (8.717944145202637 47.49697113037109),POINT (8.7247563 47.4979013),764.3450288464734
1662023810-1327,"Hulfteggstrasse 18, 8400 Winterthur, ZH",47.49177169799805,8.75317096710205,4095400190,ALDI,POINT (8.75317096710205 47.49177169799805),POINT (8.7247563 47.4979013),3230.5868084698855
1662023764-976,"Schulergasse 4, 8406 Winterthur, ZH",47.4910888671875,8.705008506774902,4095400190,ALDI,POINT (8.705008506774902 47.4910888671875),POINT (8.7247563 47.4979013),2320.00462638405
1662023795-1205,"Steiggasse 4, 8400 Winterthur, ZH",47.498043060302734,8.727981567382812,4095400190,ALDI,POINT (8.727981567382812 47.498043060302734),POINT (8.7247563 47.4979013),358.9716532570392
1662023752-885,"Hegifeldstrasse 64, 8404 Winterthur, ZH",47.50727081298828,8.76787281036377,1247707400,Volg,POINT (8.76787281036377 47.50727081298828),POINT (8.790178300000001 47.521026),2904.5780803158445
1662023739-783,"Espenstr. 73, 8408 Winterthur, ZH",47.50705337524414,8.680699348449707,7229823378,Volg,POINT (8.680699348449707 47.50705337524414),POINT (8.6751059 47.4725056),3848.1553967288028
1662023801-1255,"Wingertlistrasse 19, 8405 Winterthur, ZH",47.48936462402344,8.760986328125,4095400190,ALDI,POINT (8.760986328125 47.48936462402344),POINT (8.7247563 47.4979013),4136.400549724768
1662023742-813,"Reutlingerstr. 17, 8404 Winterthur, ZH",47.52203750610352,8.75655746459961,1247707400,Volg,POINT (8.75655746459961 47.52203750610352),POINT (8.790178300000001 47.521026),3740.1185335092364
1662023767-996,"Claisstrasse 11, 8408 Winterthur, ZH",47.51573181152344,8.685565948486328,4095400190,ALDI,POINT (8.685565948486328 47.51573181152344),POINT (8.7247563 47.4979013),4778.184688921058
1662023720-645,"Rümikerstrasse 36, 8409 Winterthur, ZH",47.5040168762207,8.769974708557129,1247707400,Volg,POINT (8.769974708557129 47.5040168762207),POINT (8.790178300000001 47.521026),2922.4484302736196
1662023758-932,"Seuzacherstr. 9b, 8400 Winterthur, ZH",47.51848220825195,8.719965934753418,4095400190,ALDI,POINT (8.719965934753418 47.51848220825195),POINT (8.7247563 47.4979013),2323.895726386703
1662023695-451,"Rütlistr. 17, 8400 Winterthur, ZH",47.50872802734375,8.72221565246582,4095400190,ALDI,POINT (8.72221565246582 47.50872802734375),POINT (8.7247563 47.4979013),1223.0259083721676
1662023767-986,"Jägerstrasse 59, 8406 Winterthur, ZH",47.4949951171875,8.713829040527344,4095400190,ALDI,POINT (8.713829040527344 47.4949951171875),POINT (8.7247563 47.4979013),1256.3393415227745
1662023752-884,"Zürcherstrasse 58, 8406 Winterthur, ZH",47.49482345581055,8.711419105529785,4095400190,ALDI,POINT (8.711419105529785 47.49482345581055),POINT (8.7247563 47.4979013),1521.1215709391058
1662023689-396,"Rosentalstrasse 72, 8400 Winterthur, ZH",47.51045227050781,8.723488807678223,4095400190,ALDI,POINT (8.723488807678223 47.51045227050781),POINT (8.7247563 47.4979013),1386.6384056455647
1662023714-600,"Sonnenblickstrasse 23, 8404 Winterthur, ZH",47.516544342041016,8.758272171020508,1247707400,Volg,POINT (8.758272171020508 47.516544342041016),POINT (8.790178300000001 47.521026),3581.8213664374134
1662023795-1212,"Feldstrasse 16, 8400 Winterthur, ZH",47.50643157958984,8.718624114990234,4095400190,ALDI,POINT (8.718624114990234 47.50643157958984),POINT (8.7247563 47.4979013),1159.2904300050782
1662023793-1181,"Schützenstrasse 42, 8400 Winterthur, ZH",47.50262451171875,8.718854904174805,4095400190,ALDI,POINT (8.718854904174805 47.50262451171875),POINT (8.7247563 47.4979013),836.7168095899826
1662023701-491,"Schlossackerstrasse 11, 8404 Winterthur, ZH",47.50833511352539,8.767489433288574,1247707400,Volg,POINT (8.767489433288574 47.50833511352539),POINT (8.790178300000001 47.521026),2882.6986459893596
1662023807-1301,"Eichliackerstrasse 18, 8406 Winterthur, ZH",47.48926544189453,8.713685989379883,4095400190,ALDI,POINT (8.713685989379883 47.48926544189453),POINT (8.7247563 47.4979013),1554.4080308362902
1662023789-1159,"Else-Züblin-Strasse 73, 8404 Winterthur, ZH",47.50276184082031,8.763882637023926,1247707400,Volg,POINT (8.763882637023926 47.50276184082031),POINT (8.790178300000001 47.521026),3546.533316118677
1662023758-930,"Bollstrasse 39, 8405 Winterthur, ZH",47.48131942749024,8.760581016540527,4095400190,ALDI,POINT (8.760581016540527 47.48131942749024),POINT (8.7247563 47.4979013),4380.59525366751
1662023795-1202,"Bettenstrasse 66, 8400 Winterthur, ZH",47.51546478271485,8.716787338256836,4095400190,ALDI,POINT (8.716787338256836 47.51546478271485),POINT (8.7247563 47.4979013),2124.0527992194034
1662023723-656,"8409 Winterthur, ZH",47.50626754760742,8.779024124145508,1247707400,Volg,POINT (8.779024124145508 47.50626754760742),POINT (8.790178300000001 47.521026),2041.7139520217604
1662023801-1257,"Einfangstrasse 13, 8406 Winterthur, ZH",47.491580963134766,8.709972381591797,4095400190,ALDI,POINT (8.709972381591797 47.491580963134766),POINT (8.7247563 47.4979013),1784.6467192220957
1662023733-732,"Hegifeldstrasse 66, 8404 Winterthur, ZH",47.5070686340332,8.767720222473145,1247707400,Volg,POINT (8.767720222473145 47.5070686340332),POINT (8.790178300000001 47.521026),2930.6466754727194
1662023733-729,"Jägerstrasse 59, 8406 Winterthur, ZH",47.4949951171875,8.713829040527344,4095400190,ALDI,POINT (8.713829040527344 47.4949951171875),POINT (8.7247563 47.4979013),1256.3393415227745
1662023764-982,"Weststr. 131, 8408 Winterthur, ZH",47.50980758666992,8.705296516418457,4095400190,ALDI,POINT (8.705296516418457 47.50980758666992),POINT (8.7247563 47.4979013),2528.769863323601
1662023755-902,"Oberfeldstrasse 2, 8408 Winterthur, ZH",47.50580596923828,8.707270622253418,4095400190,ALDI,POINT (8.707270622253418 47.50580596923828),POINT (8.7247563 47.4979013),2129.601669071385
1662023774-1048,"Robert-Sulzer-Gasse 4, 8400 Winterthur, ZH",47.49491500854492,8.716140747070312,4095400190,ALDI,POINT (8.716140747070312 47.49491500854492),POINT (8.7247563 47.4979013),1012.6720141494521
1662023730-705,"Tösstalstrasse 345, 8482 Sennhof (Winterthur), ZH",47.46803665161133,8.760699272155762,457357597,Volg,POINT (8.760699272155762 47.46803665161133),POINT (8.7992573 47.4439104),5040.989402873107
1662023774-1034,"Kreuzstrasse 7, 8400 Winterthur, ZH",47.50360870361328,8.72900104522705,4095400190,ALDI,POINT (8.72900104522705 47.50360870361328),POINT (8.7247563 47.4979013),785.0270725365938
1662023745-817,"Riedhofstrasse 58, 8408 Winterthur, ZH",47.51362609863281,8.694538116455078,4095400190,ALDI,POINT (8.694538116455078 47.51362609863281),POINT (8.7247563 47.4979013),3778.563238100014
1662023804-1284,"Else-Züblin-Strasse 106, 8404 Winterthur, ZH",47.503868103027344,8.764745712280273,1247707400,Volg,POINT (8.764745712280273 47.503868103027344),POINT (8.790178300000001 47.521026),3398.9194129475495
1662023730-697,"Scheideggstrasse 8, 8400 Winterthur, ZH",47.49159622192383,8.750418663024902,4095400190,ALDI,POINT (8.750418663024902 47.49159622192383),POINT (8.7247563 47.4979013),2936.458866521665
1662023720-644,"Burstwiesenstr. 16, 8606 Greifensee, ZH",47.36891555786133,8.680346488952637,366489192,Volg,POINT (8.680346488952637 47.36891555786133),POINT (8.6925652 47.3895254),2641.6084433039828
1662023714-599,"Burstwiesenstr. 22, 8606 Greifensee, ZH",47.36946487426758,8.679994583129883,366489192,Volg,POINT (8.679994583129883 47.36946487426758),POINT (8.6925652 47.3895254),2610.752887376549
1662023752-881,"Sandbüelstrasse 44, 8606 Greifensee, ZH",47.37326431274414,8.676733016967773,366489192,Volg,POINT (8.676733016967773 47.37326431274414),POINT (8.6925652 47.3895254),2508.800501456904
1662023771-1017,"Müllerwis 30, 8606 Greifensee, ZH",47.369266510009766,8.681855201721191,366489192,Volg,POINT (8.681855201721191 47.369266510009766),POINT (8.6925652 47.3895254),2525.2846711076363
1662023736-765,"Burstwiesenstr. 22, 8606 Greifensee, ZH",47.36946487426758,8.679994583129883,366489192,Volg,POINT (8.679994583129883 47.36946487426758),POINT (8.6925652 47.3895254),2610.752887376549
1662023771-1027,"Müllerwis 25, 8606 Greifensee, ZH",47.37081146240234,8.682324409484863,366489192,Volg,POINT (8.682324409484863 47.37081146240234),POINT (8.6925652 47.3895254),2351.175645022096
1662023810-1335,"Am Pfisterhölzli 36, 8606 Greifensee, ZH",47.36343765258789,8.69112777709961,366489192,Volg,POINT (8.69112777709961 47.36343765258789),POINT (8.6925652 47.3895254),2871.9614463412786
1662023739-782,"Bergacherstrasse 4, 8630 Rüti ZH, ZH",47.25069427490234,8.85564136505127,338156406,Volg,POINT (8.85564136505127 47.25069427490234),POINT (8.8208789 47.2696707),4391.893709000458
1662023730-707,"Walderstrasse 103, 8630 Rüti ZH, ZH",47.26651382446289,8.867326736450195,338156406,Volg,POINT (8.867326736450195 47.26651382446289),POINT (8.8208789 47.2696707),5176.397695606533
1662023689-408,"Widenweg 12, 8630 Rüti ZH, ZH",47.25362396240234,8.85413646697998,338156406,Volg,POINT (8.85413646697998 47.25362396240234),POINT (8.8208789 47.2696707),4096.874148126024
1662023689-407,"Werkstrasse 47, 8630 Rüti ZH, ZH",47.252437591552734,8.853998184204102,338156406,Volg,POINT (8.853998184204102 47.252437591552734),POINT (8.8208789 47.2696707),4140.958619817886
1662023707-548,"Moosstrasse 22, 8630 Rüti ZH, ZH",47.254005432128906,8.855942726135254,338156406,Volg,POINT (8.855942726135254 47.254005432128906),POINT (8.8208789 47.2696707),4261.942334138067
1662023723-663,"Bachtelstrasse 24b, 8630 Rüti ZH, ZH",47.26611328125,8.86687183380127,338156406,Volg,POINT (8.86687183380127 47.26611328125),POINT (8.8208789 47.2696707),5129.09552807817
1662023723-668,"Werkstrasse 47, 8630 Rüti ZH, ZH",47.252437591552734,8.853998184204102,338156406,Volg,POINT (8.853998184204102 47.252437591552734),POINT (8.8208789 47.2696707),4140.958619817886
1662023739-792,"Frohwiesstrasse 14, 8630 Rüti ZH, ZH",47.26621627807617,8.868329048156738,338156406,Volg,POINT (8.868329048156738 47.26621627807617),POINT (8.8208789 47.2696707),5289.849548863474
1662023707-540,"Aronenweg 9, 8618 Oetwil am See, ZH",47.27603149414063,8.718671798706055,9910023634,Volg,POINT (8.718671798706055 47.27603149414063),POINT (8.7214317 47.2702233),708.3106863581531
1662023783-1117,"Glärnischstrasse 62, 8618 Oetwil am See, ZH",47.27785873413086,8.720203399658203,9910023634,Volg,POINT (8.720203399658203 47.27785873413086),POINT (8.7214317 47.2702233),850.2475059600354
1662023707-537,"Aronenweg 17, 8618 Oetwil am See, ZH",47.275535583496094,8.718412399291992,9910023634,Volg,POINT (8.718412399291992 47.275535583496094),POINT (8.7214317 47.2702233),673.5138117899612
1662023707-538,"Pilatusstrasse 14, 8330 Pfäffikon ZH, ZH",47.364253997802734,8.783860206604004,6815640223,Volg,POINT (8.783860206604004 47.364253997802734),POINT (8.811601 47.3325792),4650.786386873766
1662023711-561,"Schulstrasse 26a, 8330 Pfäffikon ZH, ZH",47.36679458618164,8.781128883361816,6815640223,Volg,POINT (8.781128883361816 47.36679458618164),POINT (8.811601 47.3325792),5061.3425450135355
1662023698-479,"Obermattstrasse 82, 8330 Pfäffikon ZH, ZH",47.370731353759766,8.782037734985352,6815640223,Volg,POINT (8.782037734985352 47.370731353759766),POINT (8.811601 47.3325792),5327.537209422903
1662023695-439,"Steinackerstrasse 25, 8330 Pfäffikon ZH, ZH",47.37303924560547,8.780903816223145,6815640223,Volg,POINT (8.780903816223145 47.37303924560547),POINT (8.811601 47.3325792),5605.207003998423
1662023686-369,"Schärackerstrasse 15, 8330 Pfäffikon ZH, ZH",47.37131118774414,8.779349327087402,6815640223,Volg,POINT (8.779349327087402 47.37131118774414),POINT (8.811601 47.3325792),5565.594496387408
1662023789-1161,"Nelkenstr. 9, 8330 Pfäffikon ZH, ZH",47.37203598022461,8.784619331359863,6815640223,Volg,POINT (8.784619331359863 47.37203598022461),POINT (8.811601 47.3325792),5272.593493696424
1662023767-1001,"Nelkenstr. 2, 8330 Pfäffikon ZH, ZH",47.37173843383789,8.784454345703125,6815640223,Volg,POINT (8.784454345703125 47.37173843383789),POINT (8.811601 47.3325792),5256.254375896053
1662023736-761,"Tunnelstr. 7, 8330 Pfäffikon ZH, ZH",47.36857604980469,8.781661033630371,6815640223,Volg,POINT (8.781661033630371 47.36857604980469),POINT (8.811601 47.3325792),5170.1104953074055
1662023780-1084,"Nelkenstr. 2, 8330 Pfäffikon ZH, ZH",47.37173843383789,8.784454345703125,6815640223,Volg,POINT (8.784454345703125 47.37173843383789),POINT (8.811601 47.3325792),5256.254375896053
1662023793-1179,"Bachtelstrasse 57, 8330 Pfäffikon ZH, ZH",47.36494064331055,8.791268348693848,6815640223,Volg,POINT (8.791268348693848 47.36494064331055),POINT (8.811601 47.3325792),4213.922343933941
1662023695-442,"Schärackerstrasse 9, 8330 Pfäffikon ZH, ZH",47.371185302734375,8.779633522033691,6815640223,Volg,POINT (8.779633522033691 47.371185302734375),POINT (8.811601 47.3325792),5534.673377777903
1662023767-990,"Nelkenstr. 9, 8330 Pfäffikon ZH, ZH",47.37203598022461,8.784619331359863,6815640223,Volg,POINT (8.784619331359863 47.37203598022461),POINT (8.811601 47.3325792),5272.593493696424
1662023717-608,"Tunnelstr. 5, 8330 Pfäffikon ZH, ZH",47.36875915527344,8.780900001525879,6815640223,Volg,POINT (8.780900001525879 47.36875915527344),POINT (8.811601 47.3325792),5240.254699263842
1662023771-1016,"Schulstrasse 12, 8330 Pfäffikon ZH, ZH",47.36713790893555,8.780004501342773,6815640223,Volg,POINT (8.780004501342773 47.36713790893555),POINT (8.811601 47.3325792),5173.51315549026
1662023795-1214,"Hittnauerstrasse 62, 8330 Pfäffikon ZH, ZH",47.36471557617188,8.796123504638672,6815640223,Volg,POINT (8.796123504638672 47.36471557617188),POINT (8.811601 47.3325792),3928.357002452075
1662023707-532,"Hochstrasse 141, 8330 Pfäffikon ZH, ZH",47.36073303222656,8.793621063232422,6815640223,Volg,POINT (8.793621063232422 47.36073303222656),POINT (8.811601 47.3325792),3683.48032299562
1662023701-497,"Kempttalstrasse 43, 8330 Pfäffikon ZH, ZH",47.36790084838867,8.780043601989746,6815640223,Volg,POINT (8.780043601989746 47.36790084838867),POINT (8.811601 47.3325792),5232.445702706709
1662023777-1071,"Pilatusstrasse 22, 8330 Pfäffikon ZH, ZH",47.36396408081055,8.783564567565918,6815640223,Volg,POINT (8.783564567565918 47.36396408081055),POINT (8.811601 47.3325792),4648.973290638362
1662023730-704,"Dorfstrasse 84, 8954 Geroldswil, ZH",47.42408752441406,8.411906242370605,420847626,ALDI,POINT (8.411906242370605 47.42408752441406),POINT (8.40575 47.4031872),2398.775069714292
1662023774-1039,"Dorfstrasse 100, 8954 Geroldswil, ZH",47.424278259277344,8.409123420715332,420847626,ALDI,POINT (8.409123420715332 47.424278259277344),POINT (8.40575 47.4031872),2350.144194118991
1662023723-660,"Brunaustrasse 160, 8951 Fahrweid, ZH",47.412540435791016,8.417913436889648,420847626,ALDI,POINT (8.417913436889648 47.412540435791016),POINT (8.40575 47.4031872),1699.3556583337565
1662023783-1114,"Huebwiesenstrasse 20, 8954 Geroldswil, ZH",47.4210090637207,8.412511825561523,420847626,ALDI,POINT (8.412511825561523 47.4210090637207),POINT (8.40575 47.4031872),2099.6370289384586
1662023692-432,"8954 Geroldswil, ZH",47.42545318603516,8.410881042480469,420847626,ALDI,POINT (8.410881042480469 47.42545318603516),POINT (8.40575 47.4031872),2514.827538364963
1662023689-390,"8954 Geroldswil, ZH",47.42545318603516,8.410881042480469,420847626,ALDI,POINT (8.410881042480469 47.42545318603516),POINT (8.40575 47.4031872),2514.827538364963
1662023771-1023,"Soodstrasse 13, 8134 Adliswil, ZH",47.31380462646485,8.526074409484863,8062028222,ALDI,POINT (8.526074409484863 47.31380462646485),POINT (8.5210608 47.3161717),615.2630362953337
1662023771-1012,"Rütistr. 28, 8134 Adliswil, ZH",47.30426788330078,8.529253959655762,8062028222,ALDI,POINT (8.529253959655762 47.30426788330078),POINT (8.5210608 47.3161717),1594.841793128429
1662023730-720,"Parkweg 10, 8134 Adliswil, ZH",47.32250595092773,8.53007984161377,8062028222,ALDI,POINT (8.53007984161377 47.32250595092773),POINT (8.5210608 47.3161717),1221.0398743841054
1662023698-473,"Kronenstrasse 3, 8134 Adliswil, ZH",47.311859130859375,8.527588844299316,8062028222,ALDI,POINT (8.527588844299316 47.311859130859375),POINT (8.5210608 47.3161717),867.0707423297692
1662023730-719,"Salamanderweg 3, 8134 Adliswil, ZH",47.32252502441406,8.530826568603516,8062028222,ALDI,POINT (8.530826568603516 47.32252502441406),POINT (8.5210608 47.3161717),1291.239528610551
1662023774-1051,"Breitenstrasse 12, 8134 Adliswil, ZH",47.30633163452149,8.5193452835083,8062028222,ALDI,POINT (8.5193452835083 47.30633163452149),POINT (8.5210608 47.3161717),1098.7749870430723
1662023730-718,"Parkweg 8, 8134 Adliswil, ZH",47.322261810302734,8.53016471862793,8062028222,ALDI,POINT (8.53016471862793 47.322261810302734),POINT (8.5210608 47.3161717),1213.7862529238153
1662023810-1330,"Oberhusstrasse 24, 8134 Adliswil, ZH",47.29860305786133,8.523846626281738,8062028222,ALDI,POINT (8.523846626281738 47.29860305786133),POINT (8.5210608 47.3161717),1956.6490026678835
1662023798-1232,"Rainstrasse 10, 8134 Adliswil, ZH",47.32304763793945,8.51756763458252,8062028222,ALDI,POINT (8.51756763458252 47.32304763793945),POINT (8.5210608 47.3161717),850.0642264053643
1662023695-440,"Im Sihlhof 2, 8134 Adliswil, ZH",47.32122421264648,8.522125244140625,8062028222,ALDI,POINT (8.522125244140625 47.32122421264648),POINT (8.5210608 47.3161717),568.0786058798964
1662023701-500,"Zelgstrasse 48, 8134 Adliswil, ZH",47.31568908691406,8.517690658569336,8062028222,ALDI,POINT (8.517690658569336 47.31568908691406),POINT (8.5210608 47.3161717),378.482065538076
1662023767-998,"Steinmürlistrasse 42, 8953 Dietikon, ZH",47.40464401245117,8.392952919006348,420847626,ALDI,POINT (8.392952919006348 47.40464401245117),POINT (8.40575 47.4031872),1431.965748118304
1662023807-1298,"Grünaustrasse 12, 8953 Dietikon, ZH",47.4099235534668,8.403440475463867,420847626,ALDI,POINT (8.403440475463867 47.4099235534668),POINT (8.40575 47.4031872),784.2429403774147
1662023810-1344,"Grünaustrasse 10, 8953 Dietikon, ZH",47.40949249267578,8.403727531433105,420847626,ALDI,POINT (8.403727531433105 47.40949249267578),POINT (8.40575 47.4031872),729.1346142352087
1662023689-387,"Winzerstrasse 17, 8953 Dietikon, ZH",47.40036010742188,8.386734008789062,420847626,ALDI,POINT (8.386734008789062 47.40036010742188),POINT (8.40575 47.4031872),2137.2288689830566
1662023739-779,"Alfred Comte-Strasse 3, 8953 Dietikon, ZH",47.40963745117188,8.406033515930176,420847626,ALDI,POINT (8.406033515930176 47.40963745117188),POINT (8.40575 47.4031872),710.2301865032917
1662023798-1248,"Überlandstr. 26, 8953 Dietikon, ZH",47.40888214111328,8.40406608581543,420847626,ALDI,POINT (8.40406608581543 47.40888214111328),POINT (8.40575 47.4031872),653.8318745334102
1662023739-778,"Bleicherstrasse 43, 8953 Dietikon, ZH",47.40856552124024,8.395078659057617,420847626,ALDI,POINT (8.395078659057617 47.40856552124024),POINT (8.40575 47.4031872),1325.9103360376087
1662023783-1106,"Zentralstr. 6, 8953 Dietikon, ZH",47.40494155883789,8.400984764099121,420847626,ALDI,POINT (8.400984764099121 47.40494155883789),POINT (8.40575 47.4031872),563.9185266660901
1662023783-1116,"Steinmürlistrasse 3, 8953 Dietikon, ZH",47.40771484375,8.39243221282959,420847626,ALDI,POINT (8.39243221282959 47.40771484375),POINT (8.40575 47.4031872),1562.3802891185442
1662023771-1031,"Heimstrasse 12, 8953 Dietikon, ZH",47.409934997558594,8.40533447265625,420847626,ALDI,POINT (8.40533447265625 47.409934997558594),POINT (8.40575 47.4031872),743.6977439988509
1662023714-596,"8953 Dietikon, ZH",47.40451431274414,8.402215957641602,420847626,ALDI,POINT (8.402215957641602 47.40451431274414),POINT (8.40575 47.4031872),419.2072798787217
1662023692-430,"Bohnäckerstr. 11, 8955 Oetwil an der Limmat, ZH",47.427955627441406,8.391122817993164,3849759580,ALDI,POINT (8.391122817993164 47.427955627441406),POINT (8.3691584 47.4236625),2487.5752126689063
1662023807-1314,"Webereistrasse 8, 8953 Dietikon, ZH",47.40984725952149,8.404328346252441,420847626,ALDI,POINT (8.404328346252441 47.40984725952149),POINT (8.40575 47.4031872),749.4718518761257
1662023798-1226,"Rebackerstrasse 31, 8955 Oetwil an der Limmat, ZH",47.426002502441406,8.397468566894531,420847626,ALDI,POINT (8.397468566894531 47.426002502441406),POINT (8.40575 47.4031872),2673.324737490493
1662023795-1215,"Lägernstrasse 20, 8953 Dietikon, ZH",47.40567779541016,8.394124031066895,420847626,ALDI,POINT (8.394124031066895 47.40567779541016),POINT (8.40575 47.4031872),1321.4610465059816
1662023714-578,"Limmatwiesenstr. 22, 8955 Oetwil an der Limmat, ZH",47.42788314819336,8.393007278442383,3849759580,ALDI,POINT (8.393007278442383 47.42788314819336),POINT (8.3691584 47.4236625),2692.213618754625
1662023786-1134,"Ueberlandstr. 14, 8953 Dietikon, ZH",47.40869522094727,8.40636157989502,420847626,ALDI,POINT (8.40636157989502 47.40869522094727),POINT (8.40575 47.4031872),609.688695866259
1662023764-967,"Webereistrasse 3, 8953 Dietikon, ZH",47.40999984741211,8.404282569885254,420847626,ALDI,POINT (8.404282569885254 47.40999984741211),POINT (8.40575 47.4031872),766.954009599863
1662023755-911,"Ueberlandstrasse 125, 8953 Dietikon, ZH",47.409141540527344,8.393057823181152,420847626,ALDI,POINT (8.393057823181152 47.409141540527344),POINT (8.40575 47.4031872),1555.8909296282054
1662023793-1200,"Obere Leihofstrasse 13, 8820 Wädenswil, ZH",47.22357177734375,8.666900634765625,7804887261,Volg,POINT (8.666900634765625 47.22357177734375),POINT (8.6699861 47.2274892),550.58559000479
1662023761-955,"Alte Landstrasse 99, 8804 Au ZH, ZH",47.247032165527344,8.634622573852539,332215846,Volg,POINT (8.634622573852539 47.247032165527344),POINT (8.6425321 47.2697351),2646.242335173163
1662023783-1125,"Kirchrain 1A, 8824 Schönenberg ZH, ZH",47.1933822631836,8.644906997680664,1210602981,Volg,POINT (8.644906997680664 47.1933822631836),POINT (8.6445691 47.1922277),132.367511602192
1662023798-1235,"Seestrasse 131, 8820 Wädenswil, ZH",47.23108673095703,8.672642707824707,7804887261,Volg,POINT (8.672642707824707 47.23108673095703),POINT (8.6699861 47.2274892),493.60544662947666
1662023813-1347,"Rotweg 43, 8820 Wädenswil, ZH",47.22712326049805,8.662622451782227,7804887261,Volg,POINT (8.662622451782227 47.22712326049805),POINT (8.6699861 47.2274892),819.7878406934832
1662023780-1085,"Kirchrain 1, 8824 Schönenberg ZH, ZH",47.19331359863281,8.645079612731934,1210602981,Volg,POINT (8.645079612731934 47.19331359863281),POINT (8.6445691 47.1922277),132.18445201169823
1662023783-1121,"Obere Leihofstrasse 11, 8820 Wädenswil, ZH",47.22368240356445,8.66706371307373,7804887261,Volg,POINT (8.66706371307373 47.22368240356445),POINT (8.6699861 47.2274892),529.816151071562
1662023736-750,"8820 Wädenswil, ZH",47.22698211669922,8.662249565124512,7804887261,Volg,POINT (8.662249565124512 47.22698211669922),POINT (8.6699861 47.2274892),862.0674357039117
1662023783-1122,"Obere Leihofstrasse 13, 8820 Wädenswil, ZH",47.22357177734375,8.666900634765625,7804887261,Volg,POINT (8.666900634765625 47.22357177734375),POINT (8.6699861 47.2274892),550.58559000479
1662023692-411,"8820 Wädenswil, ZH",47.22698211669922,8.662249565124512,7804887261,Volg,POINT (8.662249565124512 47.22698211669922),POINT (8.6699861 47.2274892),862.0674357039117
1662023777-1072,"Obere Leihofstrasse 13, 8820 Wädenswil, ZH",47.22357177734375,8.666900634765625,7804887261,Volg,POINT (8.666900634765625 47.22357177734375),POINT (8.6699861 47.2274892),550.58559000479
1662023720-632,"Am Gulmenbach 10, 8820 Wädenswil, ZH",47.23025894165039,8.656451225280762,7804887261,Volg,POINT (8.656451225280762 47.23025894165039),POINT (8.6699861 47.2274892),1535.4978650203755
1662023723-661,"8820 Wädenswil, ZH",47.22698211669922,8.662249565124512,7804887261,Volg,POINT (8.662249565124512 47.22698211669922),POINT (8.6699861 47.2274892),862.0674357039117
1662023789-1153,"Obere Leihofstrasse 11, 8820 Wädenswil, ZH",47.22368240356445,8.66706371307373,7804887261,Volg,POINT (8.66706371307373 47.22368240356445),POINT (8.6699861 47.2274892),529.816151071562
1662023711-571,"Schönenbergstrasse 30, 8820 Wädenswil, ZH",47.22728729248047,8.669577598571777,7804887261,Volg,POINT (8.669577598571777 47.22728729248047),POINT (8.6699861 47.2274892),50.55564472536307
1662023714-592,"Holzmoosrütistrasse 44a, 8820 Wädenswil, ZH",47.23556900024414,8.650527000427246,7804887261,Volg,POINT (8.650527000427246 47.23556900024414),POINT (8.6699861 47.2274892),2338.9544792202114
1662023733-730,"Holzmoosrütistrasse 44a, 8820 Wädenswil, ZH",47.23556900024414,8.650527000427246,7804887261,Volg,POINT (8.650527000427246 47.23556900024414),POINT (8.6699861 47.2274892),2338.9544792202114
1662023793-1197,"Obere Leihofstrasse 11, 8820 Wädenswil, ZH",47.22368240356445,8.66706371307373,7804887261,Volg,POINT (8.66706371307373 47.22368240356445),POINT (8.6699861 47.2274892),529.816151071562
1662023789-1158,"Obere Leihofstrasse 9, 8820 Wädenswil, ZH",47.22379684448242,8.667224884033203,7804887261,Volg,POINT (8.667224884033203 47.22379684448242),POINT (8.6699861 47.2274892),508.9291201516348
1662023777-1073,"Seestrasse 147, 8820 Wädenswil, ZH",47.23194885253906,8.67097282409668,7804887261,Volg,POINT (8.67097282409668 47.23194885253906),POINT (8.6699861 47.2274892),502.3517880584206
1662023793-1199,"Obere Leihofstrasse 13, 8820 Wädenswil, ZH",47.22357177734375,8.666900634765625,7804887261,Volg,POINT (8.666900634765625 47.22357177734375),POINT (8.6699861 47.2274892),550.58559000479
1662023730-714,"8820 Wädenswil, ZH",47.22698211669922,8.662249565124512,7804887261,Volg,POINT (8.662249565124512 47.22698211669922),POINT (8.6699861 47.2274892),862.0674357039117
1662023686-366,"Alte Landstrasse 95, 8804 Au ZH, ZH",47.24683380126953,8.636049270629883,332215846,Volg,POINT (8.636049270629883 47.24683380126953),POINT (8.6425321 47.2697351),2618.781940587223
1662023695-447,"Mühlestalden 4, 8824 Schönenberg ZH, ZH",47.19911956787109,8.654162406921387,1210602981,Volg,POINT (8.654162406921387 47.19911956787109),POINT (8.6445691 47.1922277),1308.3969916566462
1662023777-1074,"Auerenstrasse 14, 8820 Wädenswil, ZH",47.229774475097656,8.666169166564941,7804887261,Volg,POINT (8.666169166564941 47.229774475097656),POINT (8.6699861 47.2274892),493.194842490355
1662023704-521,"Am Gulmenbach 6, 8820 Wädenswil, ZH",47.23059844970703,8.655874252319336,7804887261,Volg,POINT (8.655874252319336 47.23059844970703),POINT (8.6699861 47.2274892),1605.957941283232
1662023786-1136,"Obere Leihofstrasse 13, 8820 Wädenswil, ZH",47.22357177734375,8.666900634765625,7804887261,Volg,POINT (8.666900634765625 47.22357177734375),POINT (8.6699861 47.2274892),550.58559000479
1662023692-420,"Zürcherstrasse 10, 8193 Eglisau, ZH",47.57310104370117,8.523083686828613,5295450795,Volg,POINT (8.523083686828613 47.57310104370117),POINT (8.4941268 47.5946766),3999.6419327072404
1662023720-641,"Sandgruebstrasse 9, 8193 Eglisau, ZH",47.56932067871094,8.523771286010742,5295450795,Volg,POINT (8.523771286010742 47.56932067871094),POINT (8.4941268 47.5946766),4317.518119920626
1662023692-418,"Zürcherstrasse 10, 8193 Eglisau, ZH",47.57310104370117,8.523083686828613,5295450795,Volg,POINT (8.523083686828613 47.57310104370117),POINT (8.4941268 47.5946766),3999.6419327072404
1662023711-556,"8193 Eglisau, ZH",47.57356262207031,8.520898818969727,5295450795,Volg,POINT (8.520898818969727 47.57356262207031),POINT (8.4941268 47.5946766),3775.3654456751624
1662023771-1014,"Alte Landstrasse 29c, 8193 Eglisau, ZH",47.57099151611328,8.526036262512207,5295450795,Volg,POINT (8.526036262512207 47.57099151611328),POINT (8.4941268 47.5946766),4401.566522408636
1662023692-421,"Zürcherstrasse 10, 8193 Eglisau, ZH",47.57310104370117,8.523083686828613,5295450795,Volg,POINT (8.523083686828613 47.57310104370117),POINT (8.4941268 47.5946766),3999.6419327072404
1662023742-797,"8193 Eglisau, ZH",47.57356262207031,8.520898818969727,5295450795,Volg,POINT (8.520898818969727 47.57356262207031),POINT (8.4941268 47.5946766),3775.3654456751624
1662023692-419,"Zürcherstrasse 10, 8193 Eglisau, ZH",47.57310104370117,8.523083686828613,5295450795,Volg,POINT (8.523083686828613 47.57310104370117),POINT (8.4941268 47.5946766),3999.6419327072404
1662023730-701,"Pfruendmattstrasse 11, 8932 Mettmenstetten, ZH",47.24324035644531,8.465059280395508,317283183,Volg,POINT (8.465059280395508 47.24324035644531),POINT (8.4636498 47.2439416),174.67598838204364
1662023813-1346,"Rossauerstrasse 25, 8932 Mettmenstetten, ZH",47.24093246459961,8.467613220214844,317283183,Volg,POINT (8.467613220214844 47.24093246459961),POINT (8.4636498 47.2439416),551.1428178711054
1662023727-673,"Albisstrasse 11, 8932 Mettmenstetten, ZH",47.24422073364258,8.464112281799316,317283183,Volg,POINT (8.464112281799316 47.24422073364258),POINT (8.4636498 47.2439416),59.892385437854934
1662023698-477,"Obere Fischbachstrasse 14, 8932 Mettmenstetten, ZH",47.24623107910156,8.461980819702148,317283183,Volg,POINT (8.461980819702148 47.24623107910156),POINT (8.4636498 47.2439416),312.8054457968692
1662023698-474,"Goethestr. 26, 8712 Stäfa, ZH",47.24072647094727,8.724349021911621,124140239,ALDI,POINT (8.724349021911621 47.24072647094727),POINT (8.7183709 47.2414948),670.0792886503873
1662023739-769,"Allenbergstrasse 25, 8712 Stäfa, ZH",47.2496223449707,8.722038269042969,124140239,ALDI,POINT (8.722038269042969 47.2496223449707),POINT (8.7183709 47.2414948),981.9729435869616
1662023689-386,"Eichstrasse 87a, 8713 Uerikon, ZH",47.23775863647461,8.74950885772705,2602929441,Volg,POINT (8.74950885772705 47.23775863647461),POINT (8.7568672 47.2358625),844.3296122570748
1662023789-1169,"Tödihof 1, 8712 Stäfa, ZH",47.24312210083008,8.724576950073242,124140239,ALDI,POINT (8.724576950073242 47.24312210083008),POINT (8.7183709 47.2414948),712.8824607957056
1662023793-1188,"Bahnhofstrasse 25, 8712 Stäfa, ZH",47.24042510986328,8.72176456451416,124140239,ALDI,POINT (8.72176456451416 47.24042510986328),POINT (8.7183709 47.2414948),395.2490243051603
1662023774-1049,"Trübelstrasse 51, 8712 Stäfa, ZH",47.2474479675293,8.723974227905273,124140239,ALDI,POINT (8.723974227905273 47.2474479675293),POINT (8.7183709 47.2414948),903.5071919379975
1662023717-605,"Schwylerstr. 22, 8712 Stäfa, ZH",47.24040985107422,8.737948417663574,236311379,Volg,POINT (8.737948417663574 47.24040985107422),POINT (8.7334701 47.2401091),499.06203066683423
1662023798-1240,"Eichstrasse 34b, 8712 Stäfa, ZH",47.23682022094727,8.740518569946289,236311379,Volg,POINT (8.740518569946289 47.23682022094727),POINT (8.7334701 47.2401091),863.0909540721777
1662023780-1100,"Hauflandweg 18, 8605 Gutenswil, ZH",47.38703155517578,8.718835830688477,366489192,Volg,POINT (8.718835830688477 47.38703155517578),POINT (8.6925652 47.3895254),2933.993173278125
1662023761-937,"Bachtelweg 9, 8604 Volketswil, ZH",47.390411376953125,8.68159294128418,366489192,Volg,POINT (8.68159294128418 47.390411376953125),POINT (8.6925652 47.3895254),1223.9400379873896
1662023810-1329,"Ifangstrasse 33, 8604 Volketswil, ZH",47.39091110229492,8.67777156829834,366489192,Volg,POINT (8.67777156829834 47.39091110229492),POINT (8.6925652 47.3895254),1652.013580212515
1662023752-883,"Pfäffikerstrasse 119, 8605 Gutenswil, ZH",47.38532638549805,8.717787742614746,366489192,Volg,POINT (8.717787742614746 47.38532638549805),POINT (8.6925652 47.3895254),2842.3400220048698
1662023777-1062,"Ifangstrasse 48, 8604 Volketswil, ZH",47.39152526855469,8.676628112792969,366489192,Volg,POINT (8.676628112792969 47.39152526855469),POINT (8.6925652 47.3895254),1785.7054855305844
1662023723-652,"Sunnebüelstr. 41, 8604 Volketswil, ZH",47.39354705810547,8.681330680847168,366489192,Volg,POINT (8.681330680847168 47.39354705810547),POINT (8.6925652 47.3895254),1325.1300674825143
1662023810-1337,"Säntisweg 5, 8604 Volketswil, ZH",47.395355224609375,8.680856704711914,366489192,Volg,POINT (8.680856704711914 47.395355224609375),POINT (8.6925652 47.3895254),1451.0850958227875
1662023720-635,"Sagirain 2, 8605 Gutenswil, ZH",47.385475158691406,8.715425491333008,366489192,Volg,POINT (8.715425491333008 47.385475158691406),POINT (8.6925652 47.3895254),2580.6368602030734
1662023707-535,"Säntisweg 3, 8604 Volketswil, ZH",47.39485931396485,8.680851936340332,366489192,Volg,POINT (8.680851936340332 47.39485931396485),POINT (8.6925652 47.3895254),1428.3342593354032
1662023777-1061,"Rigiweg 10, 8604 Volketswil, ZH",47.39101409912109,8.682113647460938,366489192,Volg,POINT (8.682113647460938 47.39101409912109),POINT (8.6925652 47.3895254),1173.6234187147263
1662023723-653,"Sunnebüelstr. 25, 8604 Volketswil, ZH",47.392845153808594,8.681580543518066,366489192,Volg,POINT (8.681580543518066 47.392845153808594),POINT (8.6925652 47.3895254),1274.7810109179497
1662023777-1076,"Ifangstrasse 50, 8604 Volketswil, ZH",47.39119338989258,8.676480293273926,366489192,Volg,POINT (8.676480293273926 47.39119338989258),POINT (8.6925652 47.3895254),1797.9328514605577
1662023752-875,"Brunnenrain 18, 8415 Berg am Irchel, ZH",47.5706901550293,8.596415519714355,3751237853,Volg,POINT (8.596415519714355 47.5706901550293),POINT (8.6244613 47.5739388),3138.9343597116003
1662023689-402,"Dorfstrasse 31, 8196 Wil ZH, ZH",47.60468292236328,8.508256912231445,5295450795,Volg,POINT (8.508256912231445 47.60468292236328),POINT (8.4941268 47.5946766),1918.2282647982836
1662023689-401,"Dorfstrasse 31, 8196 Wil ZH, ZH",47.60468292236328,8.508256912231445,5295450795,Volg,POINT (8.508256912231445 47.60468292236328),POINT (8.4941268 47.5946766),1918.2282647982836
1662023692-429,"Im Riet 14, 8427 Freienstein, ZH",47.53696060180664,8.580428123474121,4318295182,Volg,POINT (8.580428123474121 47.53696060180664),POINT (8.5469647 47.5228284),4032.3936660889035
1662023711-553,"8192 Glattfelden, ZH",47.56193923950195,8.499773979187012,5295450795,Volg,POINT (8.499773979187012 47.56193923950195),POINT (8.4941268 47.5946766),3654.622565806697
1662023707-541,"Eichhölzlistrasse 38, 8192 Glattfelden, ZH",47.55503463745117,8.505518913269043,5295450795,Volg,POINT (8.505518913269043 47.55503463745117),POINT (8.4941268 47.5946766),4539.877433477582
